[{"name":"Building Codes / Labels","hidden":0,"type":"","checkbox":1,"weight":0,"private":0,"lat":0,"lng":0,"level":0,"schedule":"","icon":"","dynamic_label":0,"zoom":"","popup":"","description":"","keywords":"","panorama":0,"labels":"","locationDisplay":"","onByDefault":1,"popupUrl":"","catId":51492,"mapId":427,"parent":27837,"markerAlt":0,"mapAlt":0,"tileType":"","tileParams":"","tileUrl":"","singleSelect":0,"listIcon":"","children":{"locations":[]},"overlays":[{"id":22920,"catId":51492,"url":"427_Main_Labels_1","weight":3,"type":"tms","mapId":427,"tiles":1,"level":0}]},{"name":"Campus Buildings","hidden":1,"type":"toggle","checkbox":1,"weight":90,"private":0,"lat":30.605265,"lng":-96.341682,"level":0,"schedule":"","icon":"/assets/427/clear.png","dynamic_label":0,"zoom":"","popup":"","description":"","keywords":"","panorama":0,"labels":"","locationDisplay":"","onByDefault":1,"popupUrl":"","catId":39042,"mapId":427,"parent":0,"markerAlt":63,"mapAlt":511,"tileType":"","tileParams":"","tileUrl":"","singleSelect":0,"listIcon":"/assets/427/clear_1.png","children":{"locations":[{"id":387042,"mrkId":102092,"mapId":427,"name":"Neeley Residence Hall","catId":39042,"shape":"","level":[0],"schedule":"","lat":30.618032,"lng":-96.344482,"altitude":0,"reference":["NEEL"],"zoom":"","icon":"","marker_feed":{"rate":0},"location_open":"","weight":0},{"id":387043,"mrkId":102093,"mapId":427,"name":"Hobby Residence Hall","catId":39042,"shape":"","level":[0],"schedule":"","lat":30.617779,"lng":-96.344154,"altitude":0,"reference":["HOBB"],"zoom":"","icon":"","marker_feed":{"rate":0},"location_open":"","weight":0},{"id":387044,"mrkId":79800,"mapId":427,"name":"Schuhmacher Residence Hall ","catId":39042,"shape":"","level":[0],"schedule":"","lat":30.617189,"lng":-96.345512,"altitude":0,"reference":"","zoom":"","icon":"","marker_feed":{"rate":0},"location_open":"","weight":0},{"id":387045,"mrkId":79799,"mapId":427,"name":"Walton Residence Hall ","catId":39042,"shape":"","level":[0],"schedule":"","lat":30.616909,"lng":-96.3452,"altitude":0,"reference":"","zoom":"","icon":"","marker_feed":{"rate":0},"location_open":"","weight":0},{"id":387046,"mrkId":79782,"mapId":427,"name":"Hullabaloo Residence Hall ","catId":39042,"shape":"","level":[0],"schedule":"","lat":30.616604,"lng":-96.346466,"altitude":0,"reference":["HLBL"],"zoom":"","icon":"","marker_feed":{"rate":0},"location_open":"","weight":0},{"id":387047,"mrkId":79780,"mapId":427,"name":"Legett Residence Hall ","catId":39042,"shape":"","level":[0],"schedule":"","lat":30.616232,"lng":-96.342331,"altitude":0,"reference":"","zoom":"","icon":"","marker_feed":{"rate":0},"location_open":"","weight":0},{"id":387049,"mrkId":102097,"mapId":427,"name":"Lechner Residence Hall","catId":39042,"shape":"","level":[0],"schedule":"","lat":30.616259,"lng":-96.34388,"altitude":0,"reference":["LECH"],"zoom":"","icon":"","marker_feed":{"rate":0},"location_open":"","weight":0},{"id":387050,"mrkId":102098,"mapId":427,"name":"Haas Residence Hall","catId":39042,"shape":"","level":[0],"schedule":"","lat":30.61603,"lng":-96.344566,"altitude":0,"reference":["HAAS"],"zoom":"","icon":"","marker_feed":{"rate":0},"location_open":"","weight":0},{"id":387051,"mrkId":102099,"mapId":427,"name":"McFadden Residence Hall","catId":39042,"shape":"","level":[0],"schedule":"","lat":30.615734,"lng":-96.344276,"altitude":0,"reference":["MCFA"],"zoom":"","icon":"","marker_feed":{"rate":0},"location_open":"","weight":0},{"id":387052,"mrkId":79894,"mapId":427,"name":"Moses Residence Hall ","catId":39042,"shape":"","level":[0],"schedule":"","lat":30.615675,"lng":-96.345749,"altitude":0,"reference":"","zoom":"","icon":"","marker_feed":{"rate":0},"location_open":"","weight":0},{"id":387053,"mrkId":79897,"mapId":427,"name":"Hughes Residence Hall ","catId":39042,"shape":"","level":[0],"schedule":"","lat":30.615522,"lng":-96.345154,"altitude":0,"reference":"","zoom":"","icon":"","marker_feed":{"rate":0},"location_open":"","weight":0},{"id":387054,"mrkId":79896,"mapId":427,"name":"Keathley Residence Hall ","catId":39042,"shape":"","level":[0],"schedule":"","lat":30.615337,"lng":-96.345581,"altitude":0,"reference":"","zoom":"","icon":"","marker_feed":{"rate":0},"location_open":"","weight":0},{"id":387055,"mrkId":79898,"mapId":427,"name":"Fowler Residence Hall ","catId":39042,"shape":"","level":[0],"schedule":"","lat":30.615036,"lng":-96.34536,"altitude":0,"reference":"","zoom":"","icon":"","marker_feed":{"rate":0},"location_open":"","weight":0},{"id":387056,"mrkId":79895,"mapId":427,"name":"Davis-Gary Residence Hall ","catId":39042,"shape":{"type":"polygon","color":"#730e0e","opacity":0,"weight":4,"colorNormal":"#730e0e","opacityNormal":0,"weightNormal":4,"colorHover":"#730e0e","opacityHover":0,"weightHover":4,"paths":[[30.61590709401707,-96.3466402888298],[30.61582284063365,-96.34675160050392],[30.61573627886199,-96.34676098823547],[30.61568087928754,-96.3466952741146],[30.615685495919937,-96.34668454527855],[30.61533693955342,-96.34634658694267],[30.61532424376803,-96.34635463356972],[30.615273460609853,-96.3462983071804],[30.61535886863332,-96.34617224335669],[30.615421193359648,-96.34617224335669],[30.61549044300853,-96.34623795747757],[30.61547890140381,-96.34624868631363],[30.615647408695924,-96.34640425443652],[30.615833228041055,-96.34659066796303],[30.615841307134914,-96.34657725691795]],"fillColor":"#6b1010","fillOpacity":0,"fillColorNormal":"#6b1010","fillOpacityNormal":0,"fillColorHover":"#6b1010","fillOpacityHover":0,"icon":true,"position":[30.615613938092757,-96.34646728634834]},"level":[0],"schedule":"","lat":30.615614,"lng":-96.346466,"altitude":0,"reference":"","zoom":"","icon":"","marker_feed":{"rate":0},"location_open":"","weight":0},{"id":387057,"mrkId":102100,"mapId":427,"name":"Clements Residence Hall","catId":39042,"shape":"","level":[0],"schedule":"","lat":30.614557,"lng":-96.345497,"altitude":0,"reference":["CLEM"],"zoom":"","icon":"","marker_feed":{"rate":0},"location_open":"","weight":0},{"id":387058,"mrkId":79770,"mapId":427,"name":"Krueger Residence Hall ","catId":39042,"shape":"","level":[0],"schedule":"","lat":30.616104,"lng":-96.335564,"altitude":0,"reference":["KRUE"],"zoom":"","icon":"","marker_feed":{"rate":0},"location_open":"","weight":0},{"id":387059,"mrkId":16737,"mapId":427,"name":"Mosher Residence Hall ","catId":39042,"shape":"","level":[0],"schedule":"","lat":30.615566,"lng":-96.335167,"altitude":0,"reference":["MOSH"],"zoom":"","icon":"","marker_feed":{"rate":0},"location_open":"","weight":0},{"id":387060,"mrkId":142265,"mapId":427,"name":"Southside Commons","catId":39042,"shape":"","level":[0],"schedule":"","lat":30.615358,"lng":-96.335968,"altitude":0,"reference":["COMM"],"zoom":"","icon":"","marker_feed":{"rate":0},"location_open":"","weight":0},{"id":387065,"mrkId":16734,"mapId":427,"name":"Dunn Residence Hall ","catId":39042,"shape":"","level":[0],"schedule":"","lat":30.615137,"lng":-96.336746,"altitude":0,"reference":["DUNN"],"zoom":"","icon":"","marker_feed":{"rate":0},"location_open":"","weight":0},{"id":387066,"mrkId":16721,"mapId":427,"name":"Aston Residence Hall","catId":39042,"shape":"","level":[0],"schedule":"","lat":30.6147,"lng":-96.336411,"altitude":0,"reference":["ASTO"],"zoom":"","icon":"","marker_feed":{"rate":0},"location_open":"","weight":0},{"id":387067,"mrkId":102171,"mapId":427,"name":"Rudder Residence Hall","catId":39042,"shape":"","level":[0],"schedule":"","lat":30.615078,"lng":-96.334175,"altitude":0,"reference":["RUDD"],"zoom":"","icon":"","marker_feed":{"rate":0},"location_open":"","weight":0},{"id":387068,"mrkId":102169,"mapId":427,"name":"Wells Residence Hall","catId":39042,"shape":"","level":[0],"schedule":"","lat":30.614874,"lng":-96.334923,"altitude":0,"reference":["WELL"],"zoom":"","icon":"","marker_feed":{"rate":0},"location_open":"","weight":0},{"id":387069,"mrkId":102170,"mapId":427,"name":"Eppright Residence Hall","catId":39042,"shape":"","level":[0],"schedule":"","lat":30.614492,"lng":-96.334518,"altitude":0,"reference":["EPPR"],"zoom":"","icon":"","marker_feed":{"rate":0},"location_open":"","weight":0},{"id":387070,"mrkId":102168,"mapId":427,"name":"Appelt Residence Hall","catId":39042,"shape":"","level":[0],"schedule":"","lat":30.614357,"lng":-96.335411,"altitude":0,"reference":["APPE"],"zoom":"","icon":"","marker_feed":{"rate":0},"location_open":"","weight":0},{"id":387071,"mrkId":102167,"mapId":427,"name":"Underwood Residence Hall","catId":39042,"shape":{"type":"polygon","color":"#730e0e","opacity":0,"weight":4,"colorNormal":"#730e0e","opacityNormal":0,"weightNormal":4,"colorHover":"#730e0e","opacityHover":0,"weightHover":4,"paths":[[30.61442514709729,-96.33606433868408],[30.614332813205248,-96.33607238531113],[30.613748799298342,-96.33551180362701],[30.61386421734579,-96.3353481888771],[30.613928851392266,-96.3353481888771],[30.614535947651532,-96.33590877056122]],"fillColor":"#6b1010","fillOpacity":0,"fillColorNormal":"#6b1010","fillOpacityNormal":0,"fillColorHover":"#6b1010","fillOpacityHover":0,"icon":true,"position":[30.61428202952709,-96.33580416440965]},"level":[0],"schedule":"","lat":30.614283,"lng":-96.335808,"altitude":0,"reference":["UNDE"],"zoom":"","icon":"","marker_feed":{"rate":0},"location_open":"","weight":0},{"id":387072,"mrkId":101332,"mapId":427,"name":"The Gardens Building N","catId":39042,"shape":"","level":[0],"schedule":"","lat":30.628084,"lng":-96.341675,"altitude":0,"reference":"","zoom":"","icon":"","marker_feed":{"rate":0},"location_open":"","weight":0},{"id":387073,"mrkId":101333,"mapId":427,"name":"The Gardens Building M","catId":39042,"shape":"","level":[0],"schedule":"","lat":30.627785,"lng":-96.341972,"altitude":0,"reference":"","zoom":"","icon":"","marker_feed":{"rate":0},"location_open":"","weight":0},{"id":387074,"mrkId":101327,"mapId":427,"name":"The Gardens Building P","catId":39042,"shape":"","level":[0],"schedule":"","lat":30.627592,"lng":-96.341484,"altitude":0,"reference":"","zoom":"","icon":"","marker_feed":{"rate":0},"location_open":"","weight":0},{"id":387075,"mrkId":101326,"mapId":427,"name":"The Gardens Building Q","catId":39042,"shape":"","level":[0],"schedule":"","lat":30.627394,"lng":-96.34111,"altitude":0,"reference":"","zoom":"","icon":"","marker_feed":{"rate":0},"location_open":"","weight":0},{"id":387076,"mrkId":103467,"mapId":427,"name":"Gardens Apartments Community Learning Center","catId":39042,"shape":"","level":[0],"schedule":"","lat":30.627029,"lng":-96.341362,"altitude":0,"reference":"","zoom":"","icon":"","marker_feed":{"rate":0},"location_open":"","weight":0},{"id":387077,"mrkId":101325,"mapId":427,"name":"The Gardens Building J","catId":39042,"shape":"","level":[0],"schedule":"","lat":30.627022,"lng":-96.342514,"altitude":0,"reference":"","zoom":"","icon":"","marker_feed":{"rate":0},"location_open":"","weight":0},{"id":387078,"mrkId":101334,"mapId":427,"name":"Gardens Apartments Community Center","catId":39042,"shape":"","level":[0],"schedule":"","lat":30.626783,"lng":-96.340225,"altitude":0,"reference":"","zoom":"","icon":"","marker_feed":{"rate":0},"location_open":"","weight":0},{"id":387079,"mrkId":101324,"mapId":427,"name":"The Gardens Building K","catId":39042,"shape":"","level":[0],"schedule":"","lat":30.626795,"lng":-96.342201,"altitude":0,"reference":"","zoom":"","icon":"","marker_feed":{"rate":0},"location_open":"","weight":0},{"id":387080,"mrkId":101323,"mapId":427,"name":"The Gardens Building L","catId":39042,"shape":"","level":[0],"schedule":"","lat":30.626577,"lng":-96.341934,"altitude":0,"reference":"","zoom":"","icon":"","marker_feed":{"rate":0},"location_open":"","weight":0},{"id":387081,"mrkId":101322,"mapId":427,"name":"The Gardens Building F","catId":39042,"shape":"","level":[0],"schedule":"","lat":30.626564,"lng":-96.34288,"altitude":0,"reference":"","zoom":"","icon":"","marker_feed":{"rate":0},"location_open":"","weight":0},{"id":387082,"mrkId":101321,"mapId":427,"name":"The Gardens Building G","catId":39042,"shape":"","level":[0],"schedule":"","lat":30.626198,"lng":-96.342453,"altitude":0,"reference":"","zoom":"","icon":"","marker_feed":{"rate":0},"location_open":"","weight":0},{"id":387083,"mrkId":101320,"mapId":427,"name":" The Gardens Building H","catId":39042,"shape":"","level":[0],"schedule":"","lat":30.625742,"lng":-96.341881,"altitude":0,"reference":"","zoom":"","icon":"","marker_feed":{"rate":0},"location_open":"","weight":0},{"id":387084,"mrkId":79942,"mapId":427,"name":"White Creek Building B","catId":39042,"shape":"","level":[0],"schedule":"","lat":30.608252,"lng":-96.355766,"altitude":0,"reference":"","zoom":"","icon":"","marker_feed":{"rate":0},"location_open":"","weight":0},{"id":387085,"mrkId":79943,"mapId":427,"name":"White Creek Building A","catId":39042,"shape":"","level":[0],"schedule":"","lat":30.607615,"lng":-96.356659,"altitude":0,"reference":"","zoom":"","icon":"","marker_feed":{"rate":0},"location_open":"","weight":0},{"id":387086,"mrkId":140307,"mapId":427,"name":"White Creek Activity Center Building","catId":39042,"shape":{"type":"polygon","color":"#520000","opacity":0,"weight":4,"colorNormal":"#520000","opacityNormal":0,"weightNormal":4,"colorHover":"#520000","opacityHover":0,"weightHover":4,"paths":[[30.607759568037142,-96.35613933205606],[30.607797658363694,-96.35613530874255],[30.607851908196835,-96.35619029402736],[30.607728403213372,-96.35633647441864],[30.60766261077471,-96.35633647441864],[30.607624520395028,-96.35630294680595],[30.60757373319887,-96.35623991489412],[30.607467541702622,-96.35623186826707],[30.607453690629317,-96.35621443390848],[30.6076118235985,-96.35602265596391],[30.60766261077471,-96.35602533817291]],"fillColor":"#5e0000","fillOpacity":0,"fillColorNormal":"#5e0000","fillOpacityNormal":0,"fillColorHover":"#5e0000","fillOpacityHover":0,"icon":true,"position":[30.607676461818144,-96.3561822474003]},"level":[0],"schedule":"","lat":30.607676,"lng":-96.356178,"altitude":0,"reference":"","zoom":"","icon":"","marker_feed":{"feed":"","rate":0},"location_open":"","weight":0},{"id":387087,"mrkId":79944,"mapId":427,"name":"White Creek Building C","catId":39042,"shape":"","level":[0],"schedule":"","lat":30.607063,"lng":-96.355972,"altitude":0,"reference":"","zoom":"","icon":"","marker_feed":{"rate":0},"location_open":"","weight":0},{"id":387088,"mrkId":192373,"mapId":427,"name":"White Creek Community Center","catId":39042,"shape":{"type":"polygon","color":"#590000","opacity":0,"weight":4,"colorNormal":"#590000","opacityNormal":0,"weightNormal":4,"colorHover":"#590000","opacityHover":0,"weightHover":4,"paths":[[30.608007732016706,-96.35376155376436],[30.607910775002715,-96.353879570961],[30.607959253521834,-96.35393857955934],[30.60782536040995,-96.35408610105517],[30.607790732850884,-96.35404318571094],[30.6077260947075,-96.35412096977235],[30.607746871258296,-96.35415852069856],[30.607580658727176,-96.3543623685837],[30.607518328954477,-96.35426849126817],[30.60747215872661,-96.35432213544847],[30.607158200593425,-96.35396540164949],[30.60729671166,-96.35379374027254],[30.607335956426176,-96.35382860898973],[30.60738674374704,-96.35376155376436],[30.607329030880365,-96.35369449853899],[30.60738674374704,-96.35359793901445],[30.607458307653964,-96.35358452796937],[30.60756449916034,-96.35344237089159],[30.607693775619648,-96.3535711169243],[30.60774225424739,-96.3534986972809],[30.607786115842064,-96.35350674390794]],"fillColor":"#7d1b1b","fillOpacity":0,"fillColorNormal":"#7d1b1b","fillOpacityNormal":0,"fillColorHover":"#7d1b1b","fillOpacityHover":0,"icon":true,"position":[30.607528230301266,-96.35390102863312]},"level":[0],"schedule":"","lat":30.607529,"lng":-96.353905,"altitude":0,"reference":["WCCC"],"zoom":"","icon":"","marker_feed":{"rate":0},"location_open":"","weight":0},{"id":387104,"mrkId":16733,"mapId":427,"name":"Kiest Corps Hall (Dorm 2 ) ","catId":39042,"shape":"","level":[0],"schedule":"","lat":30.613966,"lng":-96.33757,"altitude":0,"reference":["KIES"],"zoom":"","icon":"","marker_feed":{"rate":0},"location_open":"","weight":0},{"id":387105,"mrkId":79859,"mapId":427,"name":"Spence Corps Hall (Dorm 1)","catId":39042,"shape":"","level":[0],"schedule":"","lat":30.614334,"lng":-96.337051,"altitude":0,"reference":["SPEN"],"zoom":"","icon":"","marker_feed":{"rate":0},"location_open":"","weight":0},{"id":387106,"mrkId":105005,"mapId":427,"name":"Stephen C. Ash '87 Leadership Learning Center","catId":39042,"shape":{"type":"polygon","color":"#500000","opacity":0,"weight":4,"colorNormal":"#500000","opacityNormal":0,"weightNormal":4,"colorHover":"#500000","opacityHover":0,"weightHover":4,"paths":[[30.61393923900284,-96.3369320333004],[30.61403503580351,-96.33702054619789],[30.614180462090875,-96.33681267499924],[30.614248558451926,-96.33688241243362],[30.614276258652875,-96.33690521121024],[30.614331659031038,-96.33681401610374],[30.614138911745343,-96.33663028478622]],"fillColor":"#500000","fillOpacity":0,"fillColorNormal":"#500000","fillOpacityNormal":0,"fillColorHover":"#500000","fillOpacityHover":0,"icon":true,"position":[30.614048399016873,-96.33682780433448]},"level":[0],"schedule":"","lat":30.614048,"lng":-96.33683,"altitude":0,"reference":"","zoom":"","icon":"","marker_feed":{"rate":null},"location_open":"","weight":0},{"id":387107,"mrkId":105006,"mapId":427,"name":"Susan & Michael J. Plank '83 Leadership Learning Center","catId":39042,"shape":{"type":"polygon","color":"#500000","opacity":0,"weight":4,"colorNormal":"#500000","opacityNormal":0,"weightNormal":4,"colorHover":"#500000","opacityHover":0,"weightHover":4,"paths":[[30.61383074612618,-96.33732765913008],[30.61371186549409,-96.3375100493431],[30.61377303709971,-96.33757710456848],[30.61370494040424,-96.33767366409302],[30.613541046466235,-96.33752346038818],[30.613734949123405,-96.33723646402359]],"fillColor":"#500000","fillOpacity":0,"fillColorNormal":"#500000","fillOpacityNormal":0,"fillColorHover":"#500000","fillOpacityHover":0,"icon":true,"position":[30.613642839999432,-96.33745525265114]},"level":[0],"schedule":"","lat":30.613644,"lng":-96.337456,"altitude":0,"reference":["PLNK"],"zoom":"","icon":"","marker_feed":{"rate":null},"location_open":"","weight":0},{"id":387108,"mrkId":79861,"mapId":427,"name":"Briggs Corps Hall (Dorm 3) ","catId":39042,"shape":"","level":[0],"schedule":"","lat":30.614044,"lng":-96.336594,"altitude":0,"reference":["BRIG"],"zoom":"","icon":"","marker_feed":{"rate":0},"location_open":"","weight":0},{"id":387109,"mrkId":79860,"mapId":427,"name":"Fountain Corps Hall (Dorm 4)","catId":39042,"shape":"","level":[0],"schedule":"","lat":30.613503,"lng":-96.337456,"altitude":0,"reference":["FOUN"],"zoom":"","icon":"","marker_feed":{"rate":0},"location_open":"","weight":0},{"id":387110,"mrkId":79867,"mapId":427,"name":"Gainer Corps Hall (Dorm 5) ","catId":39042,"shape":"","level":[0],"schedule":"","lat":30.613941,"lng":-96.33596,"altitude":0,"reference":["GAIN"],"zoom":"","icon":"","marker_feed":{"rate":0},"location_open":"","weight":0},{"id":387111,"mrkId":79862,"mapId":427,"name":"Lacy Corps Hall (Dorm 6) ","catId":39042,"shape":"","level":[0],"schedule":"","lat":30.61298,"lng":-96.337402,"altitude":0,"reference":["LACY"],"zoom":"","icon":"","marker_feed":{"rate":0},"location_open":"","weight":0},{"id":387112,"mrkId":103465,"mapId":427,"name":"H. Grady Ash, Jr. Leadership Learning Center","catId":39042,"shape":"","level":[0],"schedule":"","lat":30.61363,"lng":-96.335617,"altitude":0,"reference":"","zoom":"","icon":"","marker_feed":{"rate":0},"location_open":"","weight":0},{"id":387113,"mrkId":79866,"mapId":427,"name":"Leonard Corps Hall (Dorm 7) ","catId":39042,"shape":{"type":"polygon","color":"#730e0e","opacity":0,"weight":4,"colorNormal":"#730e0e","opacityNormal":0,"weightNormal":4,"colorHover":"#730e0e","opacityHover":0,"weightHover":4,"paths":[[30.613628764383037,-96.3357612490654],[30.613531812996694,-96.33567273616791],[30.613444094992058,-96.33567944169044],[30.613094376367833,-96.33620917797089],[30.613197099131046,-96.33630037307738],[30.613282508986003,-96.33629366755486]],"fillColor":"#6b1010","fillOpacity":0,"fillColorNormal":"#6b1010","fillOpacityNormal":0,"fillColorHover":"#6b1010","fillOpacityHover":0,"icon":true,"position":[30.613411777812413,-96.33597448468208]},"level":[0],"schedule":"","lat":30.613413,"lng":-96.335976,"altitude":0,"reference":["LEON"],"zoom":"","icon":"","marker_feed":{"feed":"","rate":0},"location_open":"","weight":0},{"id":387114,"mrkId":79863,"mapId":427,"name":"Harrell Corps Hall (Dorm 8) ","catId":39042,"shape":"","level":[0],"schedule":"","lat":30.612839,"lng":-96.336792,"altitude":0,"reference":["HARL"],"zoom":"","icon":"","marker_feed":{"rate":0},"location_open":"","weight":0},{"id":387115,"mrkId":103466,"mapId":427,"name":"Buzbee Leadership Learning Center","catId":39042,"shape":{"type":"polygon","color":"#500000","opacity":0,"weight":4,"colorNormal":"#500000","opacityNormal":0,"weightNormal":4,"colorHover":"#500000","opacityHover":0,"weightHover":4,"paths":[[30.61280813708197,-96.33714661002158],[30.612751581639095,-96.33724316954613],[30.612669633897955,-96.33725389838219],[30.612578452527,-96.33724585175514],[30.61240070631657,-96.33709564805031],[30.61248034589274,-96.33697226643562],[30.612566910575197,-96.33696690201758],[30.612753890025175,-96.33712649345397],[30.612768894533275,-96.33710905909538],[30.612800057735015,-96.33713990449905]],"fillColor":"#500000","fillOpacity":0,"fillColorNormal":"#500000","fillOpacityNormal":0,"fillColorHover":"#500000","fillOpacityHover":0,"icon":true,"position":[30.61260442169927,-96.33711040019989]},"level":[0],"schedule":"","lat":30.612604,"lng":-96.337112,"altitude":0,"reference":"","zoom":"","icon":"","marker_feed":{"feed":"","rate":0},"location_open":"","weight":0},{"id":387116,"mrkId":79865,"mapId":427,"name":"Whiteley Corps Hall (Dorm 9)","catId":39042,"shape":"","level":[0],"schedule":"","lat":30.61294,"lng":-96.33577,"altitude":0,"reference":["WHTE"],"zoom":"","icon":"","marker_feed":{"rate":0},"location_open":"","weight":0},{"id":387117,"mrkId":79864,"mapId":427,"name":"White Corps Hall  (Dorm 10)","catId":39042,"shape":"","level":[0],"schedule":"","lat":30.612566,"lng":-96.336304,"altitude":0,"reference":["WHIT"],"zoom":"","icon":"","marker_feed":{"rate":0},"location_open":"","weight":0},{"id":387118,"mrkId":79870,"mapId":427,"name":"Harrington Corps Hall (Dorm 11)","catId":39042,"shape":"","level":[0],"schedule":"","lat":30.612791,"lng":-96.334938,"altitude":0,"reference":["HARR"],"zoom":"","icon":"","marker_feed":{"rate":0},"location_open":"","weight":0},{"id":387119,"mrkId":79788,"mapId":427,"name":"Utay Corps Hall (Dorm 12) ","catId":39042,"shape":"","level":[0],"schedule":"","lat":30.611832,"lng":-96.336342,"altitude":0,"reference":["UTAY"],"zoom":"","icon":"","marker_feed":{"rate":0},"location_open":"","weight":0},{"id":387120,"mrkId":145130,"mapId":427,"name":"Becky Gates Children Center","catId":39042,"shape":"","level":[0],"schedule":"","lat":30.628357,"lng":-96.342812,"altitude":0,"reference":"","zoom":"","icon":"","marker_feed":{"rate":0},"location_open":"","weight":0},{"id":387121,"mrkId":144982,"mapId":427,"name":"University Apts Community Maintenance Bldg","catId":39042,"shape":"","level":[0],"schedule":"","lat":30.626175,"lng":-96.341217,"altitude":0,"reference":"","zoom":"","icon":"","marker_feed":{"rate":0},"location_open":"","weight":0},{"id":387122,"mrkId":79871,"mapId":427,"name":"Emerging Technologies Building","catId":39042,"shape":"","level":[0],"schedule":"","lat":30.622871,"lng":-96.339531,"altitude":0,"reference":["ETB"],"zoom":"","icon":"","marker_feed":{"rate":0},"location_open":"","weight":0},{"id":387123,"mrkId":140301,"mapId":427,"name":"Zachry Engineering Education Complex","catId":39042,"shape":"","level":[0],"schedule":"","lat":30.62158,"lng":-96.340385,"altitude":0,"reference":["ZACH"],"zoom":"","icon":"","marker_feed":{"rate":0},"location_open":"","weight":0},{"id":387124,"mrkId":79872,"mapId":427,"name":"Wisenbaker Engineering Building","catId":39042,"shape":"","level":[0],"schedule":"","lat":30.620914,"lng":-96.338852,"altitude":0,"reference":["WEB"],"zoom":"","icon":"","marker_feed":{"rate":0},"location_open":"","weight":0},{"id":387125,"mrkId":79884,"mapId":427,"name":"Jack E. Brown Chemical Engineering Building","catId":39042,"shape":"","level":[0],"schedule":"","lat":30.621025,"lng":-96.341873,"altitude":0,"reference":["CHEN"],"zoom":"","icon":"","marker_feed":{"rate":0},"location_open":"","weight":0},{"id":387126,"mrkId":79883,"mapId":427,"name":"Luedecke Building (Cyclotron)","catId":39042,"shape":"","level":[0],"schedule":"","lat":30.620346,"lng":-96.341415,"altitude":0,"reference":["CYCL"],"zoom":"","icon":"","marker_feed":{"rate":0},"location_open":"","weight":0},{"id":387127,"mrkId":79885,"mapId":427,"name":"Mitchell Physics Building","catId":39042,"shape":"","level":[0],"schedule":"","lat":30.620438,"lng":-96.342529,"altitude":0,"reference":["MPHY"],"zoom":"","icon":"","marker_feed":{"rate":0},"location_open":"","weight":0},{"id":387128,"mrkId":79886,"mapId":427,"name":"Mitchell Institute for Fundamental Phys & Astronomy","catId":39042,"shape":{"type":"polygon","color":"#730e0e","opacity":0,"weight":4,"colorNormal":"#730e0e","opacityNormal":0,"weightNormal":4,"colorHover":"#730e0e","opacityHover":0,"weightHover":4,"paths":[[30.620478595762506,-96.34289994835854],[30.620445126829562,-96.34291872382164],[30.62046128424693,-96.3429656624794],[30.62046128424693,-96.34300857782362],[30.62044397272822,-96.34303942322731],[30.620402425070743,-96.34307026863097],[30.620408195579802,-96.34311318397522],[30.62008043012057,-96.34311988949776],[30.620060810321963,-96.34314000606537],[30.620015800180727,-96.34314268827438],[30.619936166802642,-96.34305417537689],[30.619945399661418,-96.34303003549574],[30.619922317512817,-96.34296700358391],[30.619920009297644,-96.34290799498557],[30.619936166802642,-96.34284228086472],[30.61997079001855,-96.34281009435654],[30.620011183754787,-96.34279265999794],[30.620147368227062,-96.34278997778893],[30.620257008129094,-96.34278997778893],[30.6203216379079,-96.34281679987907],[30.620390884051606,-96.34281009435654],[30.620457821943422,-96.34286105632782]],"fillColor":"#6b1010","fillOpacity":0,"fillColorNormal":"#6b1010","fillOpacityNormal":0,"fillColorHover":"#6b1010","fillOpacityHover":0,"icon":true,"position":[30.620112844255253,-96.34299592114986]},"level":[0],"schedule":"","lat":30.620113,"lng":-96.342995,"altitude":0,"reference":["MIST"],"zoom":"","icon":"","marker_feed":{"rate":0},"location_open":"","weight":0},{"id":387129,"mrkId":79882,"mapId":427,"name":"Blocker Building","catId":39042,"shape":"","level":[0],"schedule":"","lat":30.61977,"lng":-96.342072,"altitude":0,"reference":["BLOC"],"zoom":"","icon":"","marker_feed":{"rate":0},"location_open":"","weight":0},{"id":387130,"mrkId":137214,"mapId":427,"name":"Dwight Look Engineering Building","catId":39042,"shape":"","level":[0],"schedule":"","lat":30.620401,"lng":-96.339928,"altitude":0,"reference":["DLEB"],"zoom":"","icon":"","marker_feed":{"rate":0},"location_open":"","weight":0},{"id":387131,"mrkId":79874,"mapId":427,"name":"Civil Engineering Lab Building","catId":39042,"shape":"","level":[0],"schedule":"","lat":30.620085,"lng":-96.33963,"altitude":0,"reference":["CVLB"],"zoom":"","icon":"","marker_feed":{"rate":0},"location_open":"","weight":0},{"id":387132,"mrkId":79876,"mapId":427,"name":"H.J. (Bill) and Reta Haynes Engineering Building","catId":39042,"shape":"","level":[0],"schedule":"","lat":30.619822,"lng":-96.338783,"altitude":0,"reference":["HEB"],"zoom":"","icon":"","marker_feed":{"rate":0},"location_open":"","weight":0},{"id":387134,"mrkId":79877,"mapId":427,"name":"Joe C. Richardson Petroleum Engineering Building","catId":39042,"shape":"","level":[0],"schedule":"","lat":30.619637,"lng":-96.339378,"altitude":0,"reference":["RICH"],"zoom":"","icon":"","marker_feed":{"rate":0},"location_open":"","weight":0},{"id":387135,"mrkId":79880,"mapId":427,"name":"James J. Cain '51 Building (ENPH)","catId":39042,"shape":"","level":[0],"schedule":"","lat":30.619743,"lng":-96.341072,"altitude":0,"reference":["ENPH"],"zoom":"","icon":"","marker_feed":{"rate":0},"location_open":"","weight":0},{"id":387136,"mrkId":79879,"mapId":427,"name":"Mechanical Engineering Office Building","catId":39042,"shape":"","level":[0],"schedule":"","lat":30.61972,"lng":-96.340378,"altitude":0,"reference":["MEOB"],"zoom":"","icon":"","marker_feed":{"rate":0},"location_open":"","weight":0},{"id":387137,"mrkId":79878,"mapId":427,"name":"Doherty Building","catId":39042,"shape":"","level":[0],"schedule":"","lat":30.619314,"lng":-96.339943,"altitude":0,"reference":["DRTY"],"zoom":"","icon":"","marker_feed":{"rate":0},"location_open":"","weight":0},{"id":387138,"mrkId":79881,"mapId":427,"name":"Halbouty Geosciences Building","catId":39042,"shape":"","level":[0],"schedule":"","lat":30.61887,"lng":-96.34034,"altitude":0,"reference":["HALB"],"zoom":"","icon":"","marker_feed":{"rate":0},"location_open":"","weight":0},{"id":387139,"mrkId":16749,"mapId":427,"name":"Materials Science and Engineering Building (EIC)","catId":39042,"shape":"","level":[0],"schedule":"","lat":30.618717,"lng":-96.341522,"altitude":0,"reference":["EIC"],"zoom":"","icon":"","marker_feed":{"rate":0},"location_open":"","weight":0},{"id":387140,"mrkId":79887,"mapId":427,"name":"Reed-McDonald Building","catId":39042,"shape":"","level":[0],"schedule":"","lat":30.618368,"lng":-96.341003,"altitude":0,"reference":["RDMC"],"zoom":"","icon":"","marker_feed":{"rate":0},"location_open":"","weight":0},{"id":387141,"mrkId":79801,"mapId":427,"name":"Munnerlyn Astronomy & Space Sciences","catId":39042,"shape":"","level":[0],"schedule":"","lat":30.618958,"lng":-96.344177,"altitude":0,"reference":["MASS"],"zoom":"","icon":"","marker_feed":{"rate":0},"location_open":"","weight":0},{"id":387142,"mrkId":79802,"mapId":427,"name":"Hotard Hall","catId":39042,"shape":"","level":[0],"schedule":"","lat":30.618307,"lng":-96.344536,"altitude":0,"reference":["HOTA"],"zoom":"","icon":"","marker_feed":{"rate":0},"location_open":"","weight":0},{"id":387143,"mrkId":66441,"mapId":427,"name":"All Faiths Chapel","catId":39042,"shape":"","level":[0],"schedule":"","lat":30.615467,"lng":-96.343773,"altitude":0,"reference":["CHPL"],"zoom":"","icon":"","marker_feed":{"rate":0},"location_open":"","weight":0},{"id":387144,"mrkId":66442,"mapId":427,"name":"Henderson Hall","catId":39042,"shape":"","level":[0],"schedule":"","lat":30.61488,"lng":-96.344421,"altitude":0,"reference":["HEND"],"zoom":"","icon":"","marker_feed":{"rate":0},"location_open":"","weight":0},{"id":387145,"mrkId":66438,"mapId":427,"name":"Interdisciplinary Life Sciences Building","catId":39042,"shape":"","level":[0],"schedule":"","lat":30.614416,"lng":-96.343575,"altitude":0,"reference":["ILSB"],"zoom":"","icon":"","marker_feed":{"rate":0},"location_open":"","weight":0},{"id":387146,"mrkId":79836,"mapId":427,"name":"Jack K. Williams Administration Building","catId":39042,"shape":"","level":[0],"schedule":"","lat":30.618891,"lng":-96.336449,"altitude":0,"reference":["ADMN"],"zoom":"","icon":"","marker_feed":{"rate":0},"location_open":"","weight":0},{"id":387147,"mrkId":79837,"mapId":427,"name":"Langford Architecture Center Building A","catId":39042,"shape":"","level":[0],"schedule":"","lat":30.618874,"lng":-96.337593,"altitude":0,"reference":["ARCA"],"zoom":"","icon":"","marker_feed":{"rate":0},"location_open":"","weight":0},{"id":387148,"mrkId":79838,"mapId":427,"name":"Langford Architecture Building C","catId":39042,"shape":"","level":[0],"schedule":"","lat":30.619392,"lng":-96.337975,"altitude":0,"reference":["ARCC"],"zoom":"","icon":"","marker_feed":{"rate":0},"location_open":"","weight":0},{"id":387149,"mrkId":79839,"mapId":427,"name":"Langford Architecture Building B","catId":39042,"shape":"","level":[0],"schedule":"","lat":30.619234,"lng":-96.33828,"altitude":0,"reference":"","zoom":"","icon":"","marker_feed":{"rate":0},"location_open":"","weight":0},{"id":387150,"mrkId":79841,"mapId":427,"name":"Harvey \"Bum\" Bright Building","catId":39042,"shape":"","level":[0],"schedule":"","lat":30.619164,"lng":-96.338753,"altitude":0,"reference":["HRBB"],"zoom":"","icon":"","marker_feed":{"rate":0},"location_open":"","weight":0},{"id":387151,"mrkId":79840,"mapId":427,"name":"Scoates Hall","catId":39042,"shape":"","level":[0],"schedule":"","lat":30.618629,"lng":-96.338394,"altitude":0,"reference":["SCTS"],"zoom":"","icon":"","marker_feed":{"rate":0},"location_open":"","weight":0},{"id":387152,"mrkId":79835,"mapId":427,"name":"Eller Oceanography & Meteorology Building","catId":39042,"shape":"","level":[0],"schedule":"","lat":30.617882,"lng":-96.336601,"altitude":0,"reference":["OM"],"zoom":"","icon":"","marker_feed":{"rate":0},"location_open":"","weight":0},{"id":387153,"mrkId":79834,"mapId":427,"name":"Liberal Arts & Humanities Building","catId":39042,"shape":"","level":[0],"schedule":"","lat":30.61796,"lng":-96.337952,"altitude":0,"reference":["LAAH"],"zoom":"","icon":"","marker_feed":{"rate":0},"location_open":"","weight":0},{"id":387154,"mrkId":79842,"mapId":427,"name":"AI Engineering Building","catId":39042,"shape":"","level":[0],"schedule":"","lat":30.617308,"lng":-96.337219,"altitude":0,"reference":["AIEN"],"zoom":"","icon":"","marker_feed":{"rate":0},"location_open":"","weight":0},{"id":387155,"mrkId":79844,"mapId":427,"name":"Teague Research Center","catId":39042,"shape":"","level":[0],"schedule":"","lat":30.617416,"lng":-96.336121,"altitude":0,"reference":["TEAG"],"zoom":"","icon":"","marker_feed":{"rate":0},"location_open":"","weight":0},{"id":387156,"mrkId":79845,"mapId":427,"name":"Computing Services Annex","catId":39042,"shape":"","level":[0],"schedule":"","lat":30.61701,"lng":-96.336357,"altitude":0,"reference":["CSA"],"zoom":"","icon":"","marker_feed":{"rate":0},"location_open":"","weight":0},{"id":387157,"mrkId":79843,"mapId":427,"name":"Computing Services Center","catId":39042,"shape":"","level":[0],"schedule":"","lat":30.616873,"lng":-96.336838,"altitude":0,"reference":["CSC"],"zoom":"","icon":"","marker_feed":{"rate":0},"location_open":"","weight":0},{"id":387158,"mrkId":66462,"mapId":427,"name":"Chemistry Building","catId":39042,"shape":{"type":"polygon","color":"#730e0e","opacity":0,"weight":4,"colorNormal":"#730e0e","opacityNormal":0,"weightNormal":4,"colorHover":"#730e0e","opacityHover":0,"weightHover":4,"paths":[[30.618846683283213,-96.33952975273134],[30.618599701204282,-96.33988782763481],[30.618485442926556,-96.33989319205287],[30.61849929242195,-96.33992537856102],[30.618471593429177,-96.33996158838275],[30.618352718495267,-96.33996024727823],[30.618185370039907,-96.33980065584184],[30.618299628671792,-96.33962363004686],[30.61859162234059,-96.339201182127],[30.618710496981176,-96.3391998410225],[30.618890539848184,-96.33936479687692],[30.618868611568203,-96.33939832448962],[30.618844375042396,-96.3393983244896],[30.618785514883136,-96.33947476744655]],"fillColor":"#6b1010","fillOpacity":0,"fillColorNormal":"#6b1010","fillOpacityNormal":0,"fillColorHover":"#6b1010","fillOpacityHover":0,"icon":true,"position":[30.618482710896952,-96.33957433397882]},"level":[0],"schedule":"","lat":30.618483,"lng":-96.339577,"altitude":0,"reference":["CHAN"],"zoom":"","icon":"","marker_feed":{"rate":null},"location_open":"","weight":0},{"id":387159,"mrkId":66460,"mapId":427,"name":"Anthropology Building","catId":39042,"shape":{"type":"polygon","color":"#730e0e","opacity":0,"weight":4,"colorNormal":"#730e0e","opacityNormal":0,"weightNormal":4,"colorHover":"#730e0e","opacityHover":0,"weightHover":4,"paths":[[30.61811496818947,-96.33872240781787],[30.617996092817638,-96.33859500288963],[30.61791068712058,-96.33859500288963],[30.617609458317308,-96.33902952075007],[30.617627924477794,-96.33904427289966],[30.617430567205105,-96.33932322263719],[30.617545980863717,-96.33943855762483],[30.61762907861272,-96.33943453431131]],"fillColor":"#6b1010","fillOpacity":0,"fillColorNormal":"#6b1010","fillOpacityNormal":0,"fillColorHover":"#6b1010","fillOpacityHover":0,"icon":true,"position":[30.617847315951128,-96.33896711502531]},"level":[0],"schedule":"","lat":30.617847,"lng":-96.338966,"altitude":0,"reference":["ANTH"],"zoom":"","icon":"","marker_feed":{"rate":0},"location_open":"","weight":0},{"id":387160,"mrkId":66459,"mapId":427,"name":"Melbern G. Glasscock Building","catId":39042,"shape":"","level":[0],"schedule":"","lat":30.617418,"lng":-96.338478,"altitude":0,"reference":["GLAS"],"zoom":"","icon":"","marker_feed":{"rate":0},"location_open":"","weight":0},{"id":387161,"mrkId":66454,"mapId":427,"name":"Pavilion","catId":39042,"shape":{"type":"polygon","color":"#730e0e","opacity":0,"weight":4,"colorNormal":"#730e0e","opacityNormal":0,"weightNormal":4,"colorHover":"#730e0e","opacityHover":0,"weightHover":4,"paths":[[30.617177810812176,-96.33792981505394],[30.616825797384646,-96.33841529488565],[30.61679694376826,-96.338387131691],[30.616739236509694,-96.33838579058647],[30.616528027650027,-96.33821010589601],[30.616870809009036,-96.33773133158684],[30.616945828336522,-96.33772730827333],[30.617107408229067,-96.3378265500069]],"fillColor":"#6b1010","fillOpacity":0,"fillColorNormal":"#6b1010","fillOpacityNormal":0,"fillColorHover":"#6b1010","fillOpacityHover":0,"icon":true,"position":[30.616829945091325,-96.33799659786746]},"level":[0],"schedule":"","lat":30.616831,"lng":-96.337997,"altitude":0,"reference":["PAV"],"zoom":"","icon":"","marker_feed":{"rate":0},"location_open":"","weight":0},{"id":387162,"mrkId":16746,"mapId":427,"name":"Heep Laboratory Building","catId":39042,"shape":{"type":"polygon","color":"#730e0e","opacity":0,"weight":4,"colorNormal":"#730e0e","opacityNormal":0,"weightNormal":4,"colorHover":"#730e0e","opacityHover":0,"weightHover":4,"paths":[[30.61617139525097,-96.33786007761958],[30.616066367336124,-96.33786141872406],[30.615946335293927,-96.3377420604229],[30.616327205683987,-96.33716538548471],[30.616421845972763,-96.33716538548471],[30.61654880231239,-96.3372901082039]],"fillColor":"#6b1010","fillOpacity":0,"fillColorNormal":"#6b1010","fillOpacityNormal":0,"fillColorHover":"#6b1010","fillOpacityHover":0,"icon":true,"position":[30.61620213356747,-96.33754959097134]},"level":[0],"schedule":"","lat":30.616201,"lng":-96.337547,"altitude":0,"reference":["HLB"],"zoom":"","icon":"","marker_feed":{"rate":0},"location_open":"","weight":0},{"id":387163,"mrkId":66453,"mapId":427,"name":"Engineering Activities Building A","catId":39042,"shape":"","level":[0],"schedule":"","lat":30.615887,"lng":-96.33699,"altitude":0,"reference":["EABA"],"zoom":"","icon":"","marker_feed":{"rate":0},"location_open":"","weight":0},{"id":387164,"mrkId":66452,"mapId":427,"name":"Engineering Activities Building B","catId":39042,"shape":"","level":[0],"schedule":"","lat":30.615557,"lng":-96.33741,"altitude":0,"reference":["EABB"],"zoom":"","icon":"","marker_feed":{"rate":0},"location_open":"","weight":0},{"id":387165,"mrkId":66451,"mapId":427,"name":"Engineering Activities Bldg C","catId":39042,"shape":"","level":[0],"schedule":"","lat":30.615261,"lng":-96.33783,"altitude":0,"reference":["EABC"],"zoom":"","icon":"","marker_feed":{"rate":0},"location_open":"","weight":0},{"id":387166,"mrkId":66456,"mapId":427,"name":"Student Computing Center","catId":39042,"shape":{"type":"polygon","color":"#730e0e","opacity":0,"weight":4,"colorNormal":"#730e0e","opacityNormal":0,"weightNormal":4,"colorHover":"#730e0e","opacityHover":0,"weightHover":4,"paths":[[30.616177166012207,-96.3379888236523],[30.61600288887081,-96.33825302124025],[30.615920943881306,-96.33825168013573],[30.615728199759374,-96.3380853831768],[30.615843615447336,-96.33792579174043],[30.615857465320655,-96.33784934878352],[30.61583553635365,-96.33783459663393],[30.615881702594173,-96.33779838681222],[30.61596364761688,-96.33779972791673]],"fillColor":"#6b1010","fillOpacity":0,"fillColorNormal":"#6b1010","fillOpacityNormal":0,"fillColorHover":"#6b1010","fillOpacityHover":0,"icon":true,"position":[30.615891999826843,-96.33802545256914]},"level":[0],"schedule":"","lat":30.615892,"lng":-96.338028,"altitude":0,"reference":["SCC"],"zoom":"","icon":"","marker_feed":{"rate":0},"location_open":"","weight":0},{"id":387167,"mrkId":66455,"mapId":427,"name":"Peterson Building","catId":39042,"shape":{"type":"polygon","color":"#730e0e","opacity":0,"weight":4,"colorNormal":"#730e0e","opacityNormal":0,"weightNormal":4,"colorHover":"#730e0e","opacityHover":0,"weightHover":4,"paths":[[30.616383759038385,-96.33896917104722],[30.616269498145428,-96.33897453546525],[30.616202557357628,-96.33891418576242],[30.616162162032232,-96.33896782994272],[30.61609868362974,-96.33891418576242],[30.616125229148583,-96.33888870477679],[30.61567972512941,-96.33846625685695],[30.615550459330837,-96.33834421634675],[30.61565548780531,-96.33819937705995],[30.615761670323053,-96.33820340037349],[30.616126383301395,-96.33851319551471],[30.616486478311916,-96.33882835507394]],"fillColor":"#6b1010","fillOpacity":0,"fillColorNormal":"#6b1010","fillOpacityNormal":0,"fillColorHover":"#6b1010","fillOpacityHover":0,"icon":true,"position":[30.616002852803472,-96.33864615345375]},"level":[0],"schedule":"","lat":30.616003,"lng":-96.338646,"altitude":0,"reference":["PETR"],"zoom":"","icon":"","marker_feed":{"rate":null},"location_open":"","weight":0},{"id":387168,"mrkId":66461,"mapId":427,"name":"Francis Hall","catId":39042,"shape":{"type":"polygon","color":"#730e0e","opacity":0,"weight":4,"colorNormal":"#730e0e","opacityNormal":0,"weightNormal":4,"colorHover":"#730e0e","opacityHover":0,"weightHover":4,"paths":[[30.617485965778414,-96.340102404356],[30.617377476875944,-96.340102404356],[30.617058934289616,-96.3397939503193],[30.617130491048844,-96.33969604969026],[30.6171489573007,-96.3397040963173],[30.617268987851904,-96.3395418226719],[30.617251675762375,-96.33952170610429],[30.6173105368542,-96.33944928646089],[30.617414409281928,-96.33944928646089],[30.617541364320022,-96.33956730365753],[30.61747327027482,-96.33965313434602],[30.617466345453998,-96.33964106440547],[30.617435183754093,-96.33969336748125],[30.61747096200128,-96.339740306139],[30.617469807864474,-96.33977919816972],[30.61744672512561,-96.33981540799142],[30.617409792731944,-96.33984088897706],[30.617440954440017,-96.33987307548524],[30.617466345453998,-96.33987843990327],[30.617574834256875,-96.33998036384584]],"fillColor":"#6b1010","fillOpacity":0,"fillColorNormal":"#6b1010","fillOpacityNormal":0,"fillColorHover":"#6b1010","fillOpacityHover":0,"icon":true,"position":[30.617266210704425,-96.33984070038424]},"level":[0],"schedule":"","lat":30.617266,"lng":-96.339844,"altitude":0,"reference":["FRAN"],"zoom":"","icon":"","marker_feed":{"rate":0},"location_open":"","weight":0},{"id":387169,"mrkId":66463,"mapId":427,"name":"Chemistry Building","catId":39042,"shape":"","level":[0],"schedule":"","lat":30.61797,"lng":-96.340233,"altitude":0,"reference":["CHEM"],"zoom":"","icon":"","marker_feed":{"rate":0},"location_open":"","weight":0},{"id":387170,"mrkId":66464,"mapId":427,"name":"Thompson Hall","catId":39042,"shape":"","level":[0],"schedule":"","lat":30.617273,"lng":-96.341225,"altitude":0,"reference":["THOM"],"zoom":"","icon":"","marker_feed":{"rate":0},"location_open":"","weight":0},{"id":387171,"mrkId":16745,"mapId":427,"name":"Harrington Education Center","catId":39042,"shape":"","level":[0],"schedule":"","lat":30.616938,"lng":-96.340431,"altitude":0,"reference":["HECC"],"zoom":"","icon":"","marker_feed":{"rate":0},"location_open":"","weight":0},{"id":387172,"mrkId":66447,"mapId":427,"name":"Biological Sciences Building East","catId":39042,"shape":{"type":"polygon","color":"#730e0e","opacity":0,"weight":4,"colorNormal":"#730e0e","opacityNormal":0,"weightNormal":4,"colorHover":"#730e0e","opacityHover":0,"weightHover":4,"paths":[[30.616170241098665,-96.33944928646089],[30.616053671646377,-96.33960619568826],[30.616046746724006,-96.33959814906123],[30.615969418390513,-96.33970677852632],[30.615709733236535,-96.33945733308794],[30.615753591222525,-96.33940100669861],[30.615481209724884,-96.3391475379467],[30.615608167297957,-96.33897319436075],[30.615656641963746,-96.33896917104722]],"fillColor":"#6b1010","fillOpacity":0,"fillColorNormal":"#6b1010","fillOpacityNormal":0,"fillColorHover":"#6b1010","fillOpacityHover":0,"icon":true,"position":[30.61585037808104,-96.33940144674852]},"level":[0],"schedule":"","lat":30.61585,"lng":-96.339401,"altitude":0,"reference":["BSBE"],"zoom":"","icon":"","marker_feed":{"rate":0},"location_open":"","weight":0},{"id":387173,"mrkId":66448,"mapId":427,"name":"Biological Sciences Building West","catId":39042,"shape":{"type":"polygon","color":"#730e0e","opacity":0,"weight":4,"colorNormal":"#730e0e","opacityNormal":0,"weightNormal":4,"colorHover":"#730e0e","opacityHover":0,"weightHover":4,"paths":[[30.6159925014816,-96.33974298834801],[30.615817069851293,-96.33998170495035],[30.615712041552083,-96.33998036384584],[30.615298852192286,-96.33959144353868],[30.615476593082718,-96.33934870362283],[30.61557700499998,-96.33935138583186]],"fillColor":"#6b1010","fillOpacity":0,"fillColorNormal":"#6b1010","fillOpacityNormal":0,"fillColorHover":"#6b1010","fillOpacityHover":0,"icon":true,"position":[30.615614984049284,-96.33971069706605]},"level":[0],"schedule":"","lat":30.615616,"lng":-96.339714,"altitude":0,"reference":["BSBW"],"zoom":"","icon":"","marker_feed":{"rate":0},"location_open":"","weight":0},{"id":387174,"mrkId":66457,"mapId":427,"name":"Harrington Education CTR. Classroom Building","catId":39042,"shape":"","level":[0],"schedule":"","lat":30.616692,"lng":-96.340897,"altitude":0,"reference":["EDCT"],"zoom":"","icon":"","marker_feed":{"rate":0},"location_open":"","weight":0},{"id":387175,"mrkId":79916,"mapId":427,"name":"Fermier Hall","catId":39042,"shape":"","level":[0],"schedule":"","lat":30.61689,"lng":-96.341759,"altitude":0,"reference":["FERM"],"zoom":"","icon":"","marker_feed":{"rate":0},"location_open":"","weight":0},{"id":387176,"mrkId":66465,"mapId":427,"name":"Heaton Hall","catId":39042,"shape":"","level":[0],"schedule":"","lat":30.616726,"lng":-96.342247,"altitude":0,"reference":["HEAT"],"zoom":"","icon":"","marker_feed":{"rate":0},"location_open":"","weight":0},{"id":387177,"mrkId":66458,"mapId":427,"name":"Bolton Hall","catId":39042,"shape":"","level":[0],"schedule":"","lat":30.616264,"lng":-96.341682,"altitude":0,"reference":["BLTN"],"zoom":"","icon":"","marker_feed":{"rate":0},"location_open":"","weight":0},{"id":387178,"mrkId":66468,"mapId":427,"name":"Academic Building","catId":39042,"shape":{"type":"polygon","color":"#730e0e","opacity":0,"weight":4,"colorNormal":"#730e0e","opacityNormal":0,"weightNormal":4,"colorHover":"#730e0e","opacityHover":0,"weightHover":4,"paths":[[30.616223332089838,-96.34091377258302],[30.61608021717756,-96.34113639593127],[30.61597172669985,-96.34114041924478],[30.615911710638706,-96.34108945727351],[30.61592325219182,-96.3410720229149],[30.615800911658813,-96.34096205234528],[30.615795140875157,-96.3409647345543],[30.615716658183004,-96.34096741676332],[30.615638175427243,-96.3408923149109],[30.615656641963746,-96.34086415171623],[30.615610475615895,-96.34082525968554],[30.615624325522575,-96.3408051431179],[30.61549390548969,-96.34068578481676],[30.615467359797748,-96.34068712592125],[30.615414268392037,-96.34063482284547],[30.615560846767423,-96.34041354060176],[30.615665875230647,-96.34040951728821],[30.615724737286612,-96.3404631614685],[30.615713195709834,-96.3404765725136],[30.615854002852497,-96.34059995412828],[30.61588631921703,-96.34059995412828],[30.615918635570747,-96.3406039774418],[30.615999426407843,-96.34068042039873],[30.615989039018277,-96.34070321917537],[30.61602597195391,-96.340728700161],[30.616013276258872,-96.3407461345196],[30.616143695592164,-96.34086281061174],[30.616164470336994,-96.34086146950723]],"fillColor":"#6b1010","fillOpacity":0,"fillColorNormal":"#6b1010","fillOpacityNormal":0,"fillColorHover":"#6b1010","fillOpacityHover":0,"icon":true,"position":[30.61576709846833,-96.3408372353297]},"level":[0],"schedule":"","lat":30.615767,"lng":-96.340836,"altitude":0,"reference":["ACAD"],"zoom":"","icon":"","marker_feed":{"rate":null},"location_open":"","weight":0},{"id":387179,"mrkId":66467,"mapId":427,"name":"Nagle Hall","catId":39042,"shape":{"type":"polygon","color":"#730e0e","opacity":0,"weight":4,"colorNormal":"#730e0e","opacityNormal":0,"weightNormal":4,"colorHover":"#730e0e","opacityHover":0,"weightHover":4,"paths":[[30.61522498575224,-96.34045377373697],[30.615152273420247,-96.34055703878404],[30.615173048377816,-96.34057179093362],[30.61509456518143,-96.34068578481676],[30.615064556883627,-96.34068578481676],[30.615001077761516,-96.34077295660973],[30.614898356912082,-96.34077161550523],[30.61476331922516,-96.34063884615898],[30.614851036034693,-96.34051680564882],[30.614875273560138,-96.34052082896233],[30.614927211094276,-96.34045377373697],[30.61490989858601,-96.34043499827388],[30.61498491943288,-96.34032234549522],[30.61509456518143,-96.34032636880876]],"fillColor":"#6b1010","fillOpacity":0,"fillColorNormal":"#6b1010","fillOpacityNormal":0,"fillColorHover":"#6b1010","fillOpacityHover":0,"icon":true,"position":[30.614979581413,-96.3405349943787]},"level":[0],"schedule":"","lat":30.614981,"lng":-96.340538,"altitude":0,"reference":["NGLE"],"zoom":"","icon":"","marker_feed":{"rate":0},"location_open":"","weight":0},{"id":387180,"mrkId":16740,"mapId":427,"name":"Psychology Building","catId":39042,"shape":{"type":"polygon","color":"#730e0e","opacity":0,"weight":4,"colorNormal":"#730e0e","opacityNormal":0,"weightNormal":4,"colorHover":"#730e0e","opacityHover":0,"weightHover":4,"paths":[[30.614988381932083,-96.33979663252833],[30.61481064014542,-96.3400822877884],[30.614737927502294,-96.34008094668391],[30.614617893813207,-96.33998170495035],[30.61451171004113,-96.33998438715938],[30.61435820503434,-96.33984491229057],[30.61447015983775,-96.33966118097307],[30.614576343655404,-96.3396665453911],[30.614704456584736,-96.33979126811028],[30.61473677333292,-96.3397563993931],[30.614570572798723,-96.33960619568826],[30.614661752293788,-96.339468061924],[30.614740235841023,-96.33947879076005],[30.614908744418667,-96.33963704109193],[30.61487989023098,-96.33968397974971]],"fillColor":"#6b1010","fillOpacity":0,"fillColorNormal":"#6b1010","fillOpacityNormal":0,"fillColorHover":"#6b1010","fillOpacityHover":0,"icon":true,"position":[30.614702689262252,-96.33982544532046]},"level":[0],"schedule":"","lat":30.614702,"lng":-96.339828,"altitude":0,"reference":["PSYC"],"zoom":"","icon":"","marker_feed":{"rate":0},"location_open":"","weight":0},{"id":387181,"mrkId":16743,"mapId":427,"name":"Military Science Building","catId":39042,"shape":"","level":[0],"schedule":"","lat":30.614258,"lng":-96.339516,"altitude":0,"reference":["MILS"],"zoom":"","icon":"","marker_feed":{"rate":0},"location_open":"","weight":0},{"id":387182,"mrkId":16739,"mapId":427,"name":"Coke Building","catId":39042,"shape":{"type":"polygon","color":"#730e0e","opacity":0,"weight":4,"colorNormal":"#730e0e","opacityNormal":0,"weightNormal":4,"colorHover":"#730e0e","opacityHover":0,"weightHover":4,"paths":[[30.61486488604997,-96.34178549051286],[30.61476331922516,-96.34193703532219],[30.614690606546485,-96.34193837642671],[30.614595964565474,-96.34185791015625],[30.614562493598832,-96.34189814329149],[30.614474776527906,-96.3418270647526],[30.614507093352753,-96.34178414940835],[30.614405526152613,-96.34169429540636],[30.614507093352753,-96.34153872728349],[30.614584422854147,-96.34153604507446]],"fillColor":"#6b1010","fillOpacity":0,"fillColorNormal":"#6b1010","fillOpacityNormal":0,"fillColorHover":"#6b1010","fillOpacityHover":0,"icon":true,"position":[30.614613610757413,-96.34176363470034]},"level":[0],"schedule":"","lat":30.614614,"lng":-96.341766,"altitude":0,"reference":["COKE"],"zoom":"","icon":"","marker_feed":{"rate":0},"location_open":"","weight":0},{"id":387183,"mrkId":85623,"mapId":427,"name":"Rudder Tower","catId":39042,"shape":{"type":"polygon","color":"#730e0e","opacity":0,"weight":4,"colorNormal":"#730e0e","opacityNormal":0,"weightNormal":4,"colorHover":"#730e0e","opacityHover":0,"weightHover":4,"paths":[[30.613403698515835,-96.34027138352396],[30.613266350370584,-96.34046584367753],[30.612962798736678,-96.34047389030457],[30.612946640067875,-96.3405154645443],[30.61291663110442,-96.340548992157],[30.612817370620544,-96.3405141234398],[30.612613078374192,-96.3402955234051],[30.6127792822683,-96.3401010632515],[30.612836991887043,-96.34012252092361],[30.613235187318917,-96.34011045098306]],"fillColor":"#6b1010","fillOpacity":0,"fillColorNormal":"#6b1010","fillOpacityNormal":0,"fillColorHover":"#6b1010","fillOpacityHover":0,"icon":true,"position":[30.612926243351563,-96.34029282024132]},"level":[0],"schedule":"","lat":30.612926,"lng":-96.340294,"altitude":0,"reference":["RDER"],"zoom":"","icon":"","marker_feed":{"rate":0},"location_open":"","weight":0},{"id":387184,"mrkId":80358,"mapId":427,"name":"Memorial Student Center","catId":39042,"shape":{"type":"polygon","color":"#730e0e","opacity":0,"weight":4,"colorNormal":"#730e0e","opacityNormal":0,"weightNormal":4,"colorHover":"#730e0e","opacityHover":0,"weightHover":4,"paths":[[30.613274429678636,-96.3409835100174],[30.613191328192176,-96.34111091494563],[30.613085142855695,-96.34110689163208],[30.61296626130819,-96.34127050638199],[30.612879696982773,-96.3412691652775],[30.612850842190422,-96.34131208062173],[30.612873926025,-96.34132817387582],[30.612857767341364,-96.34134829044342],[30.612925864632636,-96.34141802787782],[30.612883159557263,-96.34147703647615],[30.61289931823665,-96.34149983525278],[30.6126823300314,-96.34181901812556],[30.612862384108386,-96.34200409054758],[30.612781590653718,-96.3421180844307],[30.612666171315805,-96.34200543165207],[30.612628082904124,-96.34205237030984],[30.61260961579003,-96.34203493595123],[30.61225066056029,-96.34256064891815],[30.612137548990308,-96.34255260229111],[30.612012895270365,-96.34244799613953],[30.612056754930855,-96.34239435195923],[30.612001353251134,-96.34235948324203],[30.61198288601753,-96.3423889875412],[30.61153274610895,-96.3419410586357],[30.611499274083464,-96.34195312857631],[30.61140001214671,-96.34182572364807],[30.611500428291414,-96.34167015552521],[30.61153390031652,-96.34167417883873],[30.61171164811804,-96.34140595793724],[30.611683947183426,-96.34137645363809],[30.611943643134392,-96.34101033210756],[30.611977115006297,-96.34103849530221],[30.612116773381462,-96.34083732962611],[30.612129469587398,-96.34084269404411],[30.612368388788692,-96.3404966890812],[30.61248842526639,-96.34050205349924],[30.61256113959877,-96.34039878845216],[30.61259576545215,-96.34037464857103],[30.61265578356867,-96.34038671851158]],"fillColor":"#6b1010","fillOpacity":0,"fillColorNormal":"#6b1010","fillOpacityNormal":0,"fillColorHover":"#6b1010","fillOpacityHover":0,"icon":true,"position":[30.61254766797437,-96.34105601347983]},"level":[0],"schedule":"","lat":30.612549,"lng":-96.341057,"altitude":0,"reference":["MSC"],"zoom":"","icon":"","marker_feed":{"rate":0},"location_open":"","weight":0},{"id":387185,"mrkId":79786,"mapId":427,"name":"Koldus Building","catId":39042,"shape":{"type":"polygon","color":"#730e0e","opacity":0,"weight":4,"colorNormal":"#730e0e","opacityNormal":0,"weightNormal":4,"colorHover":"#730e0e","opacityHover":0,"weightHover":4,"paths":[[30.612120235983255,-96.33940368890764],[30.61164239576663,-96.33896246552469],[30.611562755501296,-96.3389638066292],[30.611413862655606,-96.33915960788728],[30.611995582241022,-96.33970811963083],[30.612093689366407,-96.33972823619844],[30.612211417785673,-96.3397228717804],[30.61222757657714,-96.33969739079477],[30.612282978127425,-96.33968800306322],[30.612294520113096,-96.3397027552128],[30.6124157108794,-96.33969470858577],[30.612438794817688,-96.3396665453911],[30.612471112322055,-96.33966118097307],[30.612973186450887,-96.33892491459848],[30.612885467940213,-96.33883506059648],[30.61285315057414,-96.33887663483621],[30.61274350228743,-96.33887127041818],[30.612389164343572,-96.33937686681749],[30.61227720713408,-96.33938625454904],[30.61218948799292,-96.33940368890764]],"fillColor":"#6b1010","fillOpacity":0,"fillColorNormal":"#6b1010","fillOpacityNormal":0,"fillColorHover":"#6b1010","fillOpacityHover":0,"icon":true,"position":[30.612132932188732,-96.33954680990429]},"level":[0],"schedule":"","lat":30.612133,"lng":-96.339546,"altitude":0,"reference":["JJKB"],"zoom":"","icon":"","marker_feed":{"rate":0},"location_open":"","weight":0},{"id":387188,"mrkId":79832,"mapId":427,"name":"Williams Alumni Center","catId":39042,"shape":"","level":[0],"schedule":"","lat":30.608524,"lng":-96.336243,"altitude":0,"reference":["CLAC"],"zoom":"","icon":"","marker_feed":{"rate":0},"location_open":"","weight":0},{"id":387189,"mrkId":66446,"mapId":427,"name":"Heldenfels Hall","catId":39042,"shape":{"type":"polygon","color":"#730e0e","opacity":0,"weight":4,"colorNormal":"#730e0e","opacityNormal":0,"weightNormal":4,"colorHover":"#730e0e","opacityHover":0,"weightHover":4,"paths":[[30.615632404633892,-96.33892625570299],[30.615475438922143,-96.3391435146332],[30.615384260193338,-96.33914887905122],[30.614847573530557,-96.33865401148799],[30.614762165056085,-96.338566839695],[30.614676756506274,-96.33849844336513],[30.61467213982574,-96.33839249610901],[30.614712535772792,-96.33833885192871],[30.61483026100804,-96.33832678198814],[30.614906436083984,-96.33832141757014],[30.614957219434647,-96.33831873536111],[30.61498261109998,-96.33833885192871],[30.61498261109998,-96.33841261267665],[30.615004540260156,-96.33843272924425],[30.615146502597938,-96.33842870593071],[30.61515227342027,-96.33848771452907],[30.615182281690874,-96.33849039673807],[30.615624325522575,-96.33889943361285]],"fillColor":"#6b1010","fillOpacity":0,"fillColorNormal":"#6b1010","fillOpacityNormal":0,"fillColorHover":"#6b1010","fillOpacityHover":0,"icon":true,"position":[30.615187583631943,-96.33877267828213]},"level":[0],"schedule":"","lat":30.615189,"lng":-96.338776,"altitude":0,"reference":["HELD"],"zoom":"","icon":"","marker_feed":{"rate":null},"location_open":"","weight":0},{"id":387190,"mrkId":66450,"mapId":427,"name":"Butler Hall","catId":39042,"shape":{"type":"polygon","color":"#730e0e","opacity":0,"weight":4,"colorNormal":"#730e0e","opacityNormal":0,"weightNormal":4,"colorHover":"#730e0e","opacityHover":0,"weightHover":4,"paths":[[30.615109569326822,-96.33900672197343],[30.61499530693015,-96.33915692567827],[30.61488681523681,-96.33915558457376],[30.614814102650882,-96.3390737771988],[30.614766781732296,-96.33910998702052],[30.614699839905523,-96.33905097842216],[30.614737927502294,-96.33899465203287],[30.6146409772265,-96.33890345692636],[30.614744852518278,-96.33875191211702],[30.614851036034693,-96.33875191211702]],"fillColor":"#6b1010","fillOpacity":0,"fillColorNormal":"#6b1010","fillOpacityNormal":0,"fillColorHover":"#6b1010","fillOpacityHover":0,"icon":true,"position":[30.61485088274674,-96.33897715481]},"level":[0],"schedule":"","lat":30.614851,"lng":-96.338974,"altitude":0,"reference":["BTLR"],"zoom":"","icon":"","marker_feed":{"rate":null},"location_open":"","weight":0},{"id":387192,"mrkId":66444,"mapId":427,"name":"YMCA","catId":39042,"shape":{"type":"polygon","color":"#730e0e","opacity":0,"weight":4,"colorNormal":"#730e0e","opacityNormal":0,"weightNormal":4,"colorHover":"#730e0e","opacityHover":0,"weightHover":4,"paths":[[30.615504292932354,-96.34223207831383],[30.615431580810128,-96.34233668446541],[30.615375026899564,-96.34233668446541],[30.61534732701293,-96.34238094091415],[30.615371564414183,-96.3424064218998],[30.61534501868868,-96.3424453139305],[30.615353097823302,-96.34247213602066],[30.61534617285083,-96.34250029921532],[30.615318472955952,-96.34252175688744],[30.61528153975043,-96.34252175688744],[30.615256148163493,-96.34252175688744],[30.615226139915787,-96.3425512611866],[30.615154581749078,-96.34248420596121],[30.61508071519898,-96.34253785014153],[30.61499299859753,-96.34245872497559],[30.61503801107398,-96.34238496422766],[30.614967606934893,-96.34230583906174],[30.61498376526643,-96.34228572249413],[30.61497799443405,-96.3422454893589],[30.61499184443118,-96.34220659732819],[30.615034548576535,-96.3421905040741],[30.615054169393762,-96.3421905040741],[30.61511187765667,-96.34209796786308],[30.61513034429355,-96.34209796786308],[30.615158044242246,-96.34212478995323],[30.615212289952165,-96.34205773472786],[30.61532078128081,-96.34205773472786]],"fillColor":"#6b1010","fillOpacity":0,"fillColorNormal":"#6b1010","fillOpacityNormal":0,"fillColorHover":"#6b1010","fillOpacityHover":0,"icon":true,"position":[30.615179197908667,-96.34229044779205]},"level":[0],"schedule":"","lat":30.615179,"lng":-96.342293,"altitude":0,"reference":["YMCA"],"zoom":"","icon":"","marker_feed":{"rate":0},"location_open":"","weight":0},{"id":387193,"mrkId":79967,"mapId":427,"name":"John H. Lindsey Building","catId":39042,"shape":"","level":[0],"schedule":"","lat":30.611776,"lng":-96.333687,"altitude":0,"reference":["LIND"],"zoom":"","icon":"","marker_feed":{"rate":0},"location_open":"","weight":0},{"id":387194,"mrkId":79899,"mapId":427,"name":"E. V. Adams Band Building","catId":39042,"shape":"","level":[0],"schedule":"","lat":30.612349,"lng":-96.334679,"altitude":0,"reference":"","zoom":"","icon":"","marker_feed":{"rate":0},"location_open":"","weight":0},{"id":387195,"mrkId":79868,"mapId":427,"name":"Buzbee Leadership Learning Center","catId":39042,"shape":"","level":[0],"schedule":"","lat":30.612621,"lng":-96.337097,"altitude":0,"reference":"","zoom":"","icon":"","marker_feed":{"rate":0},"location_open":"","weight":0},{"id":387196,"mrkId":79869,"mapId":427,"name":"H. Grady Ash, Jr. '58 Leadership Learning Center","catId":39042,"shape":{"type":"polygon","color":"#730e0e","opacity":0,"weight":4,"colorNormal":"#730e0e","opacityNormal":0,"weightNormal":4,"colorHover":"#730e0e","opacityHover":0,"weightHover":4,"paths":[[30.613783424727,-96.33573040366173],[30.61371763640194,-96.3358323276043],[30.613629918565646,-96.33583635091782],[30.61360568072843,-96.33580818772316],[30.613633381113317,-96.3357625901699],[30.61352719626158,-96.33567541837692],[30.61348910818856,-96.33567407727242],[30.613431398958483,-96.33561238646507],[30.613498341662176,-96.33548498153687],[30.613584905434585,-96.33548766374588],[30.61375572438506,-96.33563920855522],[30.613731486579344,-96.33568078279495]],"fillColor":"#6b1010","fillOpacity":0,"fillColorNormal":"#6b1010","fillOpacityNormal":0,"fillColorHover":"#6b1010","fillOpacityHover":0,"icon":true,"position":[30.61359250681216,-96.3356232305523]},"level":[0],"schedule":"","lat":30.613592,"lng":-96.335625,"altitude":0,"reference":["ASH"],"zoom":"","icon":"","marker_feed":{"rate":0},"location_open":"","weight":0},{"id":387197,"mrkId":79980,"mapId":427,"name":"Moore Communications Center","catId":39042,"shape":{"type":"polygon","color":"#730e0e","opacity":0,"weight":4,"colorNormal":"#730e0e","opacityNormal":0,"weightNormal":4,"colorHover":"#730e0e","opacityHover":0,"weightHover":4,"paths":[[30.608774150711263,-96.33775144815444],[30.608667960531204,-96.3379043340683],[30.608622945093632,-96.33790701627731],[30.608520217478294,-96.33779972791672],[30.608487898655422,-96.33780643343925],[30.60847404772804,-96.33781850337982],[30.608438266156462,-96.33781850337982],[30.608250124127057,-96.33762940764426],[30.608454425577502,-96.33733168244362],[30.608489052899273,-96.33733168244362],[30.6085652329636,-96.3374175131321],[30.608547919317864,-96.33744969964026],[30.608663343564213,-96.33754760026932],[30.60869566232851,-96.33749797940254],[30.608729135323053,-96.33749127387999],[30.608818011838597,-96.33758381009102],[30.608727981082048,-96.33770316839218]],"fillColor":"#6b1010","fillOpacity":0,"fillColorNormal":"#6b1010","fillOpacityNormal":0,"fillColorHover":"#6b1010","fillOpacityHover":0,"icon":true,"position":[30.608438184998654,-96.33759919088337]},"level":[0],"schedule":"","lat":30.608438,"lng":-96.337601,"altitude":0,"reference":["KAMU"],"zoom":"","icon":"","marker_feed":{"rate":null},"location_open":"","weight":0},{"id":387198,"mrkId":79833,"mapId":427,"name":"Hagler Center - Texas A&M Foundation","catId":39042,"shape":"","level":[0],"schedule":"","lat":30.607176,"lng":-96.337532,"altitude":0,"reference":["HGLR"],"zoom":"","icon":"","marker_feed":{"rate":0},"location_open":"","weight":0},{"id":387199,"mrkId":80000,"mapId":427,"name":"AG Engineering Power & Machinery ","catId":39042,"shape":"","level":[0],"schedule":"","lat":30.614256,"lng":-96.349083,"altitude":0,"reference":["AEPM"],"zoom":"","icon":"","marker_feed":{"rate":0},"location_open":"","weight":0},{"id":387200,"mrkId":79999,"mapId":427,"name":"AG Engr Res Lab & Shop","catId":39042,"shape":"","level":[0],"schedule":"","lat":30.613771,"lng":-96.348457,"altitude":0,"reference":"","zoom":"","icon":"","marker_feed":{"rate":0},"location_open":"","weight":0},{"id":387201,"mrkId":79997,"mapId":427,"name":"Cater-Mattil Hall","catId":39042,"shape":"","level":[0],"schedule":"","lat":30.613253,"lng":-96.348167,"altitude":0,"reference":["CMAT"],"zoom":"","icon":"","marker_feed":{"rate":0},"location_open":"","weight":0},{"id":387202,"mrkId":79998,"mapId":427,"name":"Price Hobgood Ag. Engineering Research Lab","catId":39042,"shape":"","level":[0],"schedule":"","lat":30.613474,"lng":-96.349197,"altitude":0,"reference":"","zoom":"","icon":"","marker_feed":{"rate":0},"location_open":"","weight":0},{"id":387203,"mrkId":79925,"mapId":427,"name":"Heep Center","catId":39042,"shape":"","level":[0],"schedule":"","lat":30.611502,"lng":-96.348076,"altitude":0,"reference":"","zoom":"","icon":"","marker_feed":{"rate":0},"location_open":"","weight":0},{"id":387204,"mrkId":79924,"mapId":427,"name":"Kleberg Center","catId":39042,"shape":"","level":[0],"schedule":"","lat":30.610659,"lng":-96.347359,"altitude":0,"reference":["KLCT"],"zoom":"","icon":"","marker_feed":{"rate":0},"location_open":"","weight":0},{"id":387205,"mrkId":79927,"mapId":427,"name":"Biochemistry/Biophysics Building","catId":39042,"shape":"","level":[0],"schedule":"","lat":30.610807,"lng":-96.349266,"altitude":0,"reference":["BICH"],"zoom":"","icon":"","marker_feed":{"rate":0},"location_open":"","weight":0},{"id":387206,"mrkId":79926,"mapId":427,"name":"Rosenthal Meat Science & Technology Center","catId":39042,"shape":"","level":[0],"schedule":"","lat":30.609852,"lng":-96.348305,"altitude":0,"reference":"","zoom":"","icon":"","marker_feed":{"rate":0},"location_open":"","weight":0},{"id":387207,"mrkId":16753,"mapId":427,"name":"Reynolds Medical Sciences Building","catId":39042,"shape":"","level":[0],"schedule":"","lat":30.611237,"lng":-96.352051,"altitude":0,"reference":"","zoom":"","icon":"","marker_feed":{"rate":0},"location_open":"","weight":0},{"id":387208,"mrkId":79929,"mapId":427,"name":"Mays Business School - Wehner Building","catId":39042,"shape":"","level":[0],"schedule":"","lat":30.610769,"lng":-96.350792,"altitude":0,"reference":["WCBA"],"zoom":"","icon":"","marker_feed":{"rate":0},"location_open":"","weight":0},{"id":387209,"mrkId":79930,"mapId":427,"name":"Horticulture / Forest Science Building","catId":39042,"shape":"","level":[0],"schedule":"","lat":30.609241,"lng":-96.350273,"altitude":0,"reference":["HFSB"],"zoom":"","icon":"","marker_feed":{"rate":0},"location_open":"","weight":0},{"id":387210,"mrkId":79931,"mapId":427,"name":"Borlaug Center for Southern Crop Improvement","catId":39042,"shape":"","level":[0],"schedule":"","lat":30.608095,"lng":-96.349487,"altitude":0,"reference":"","zoom":"","icon":"","marker_feed":{"rate":0},"location_open":"","weight":0},{"id":387211,"mrkId":79928,"mapId":427,"name":"Nuclear Magnetic Resonance Facility","catId":39042,"shape":{"type":"polygon","color":"#730e0e","opacity":0,"weight":4,"colorNormal":"#730e0e","opacityNormal":0,"weightNormal":4,"colorHover":"#730e0e","opacityHover":0,"weightHover":4,"paths":[[30.610533197189223,-96.35002255439758],[30.609914533566513,-96.3499903678894],[30.60991915047389,-96.34982943534851],[30.61002995618409,-96.34982943534851],[30.61004380688896,-96.34973824024199],[30.61013152797377,-96.34963631629942],[30.610357755667852,-96.34964168071747],[30.610579365957832,-96.34986162185669],[30.610547047822113,-96.34991526603699]],"fillColor":"#6b1010","fillOpacity":0,"fillColorNormal":"#6b1010","fillOpacityNormal":0,"fillColorHover":"#6b1010","fillOpacityHover":0,"icon":true,"position":[30.610179374165185,-96.34986466029662]},"level":[0],"schedule":"","lat":30.61018,"lng":-96.349869,"altitude":0,"reference":["NMR"],"zoom":"","icon":"","marker_feed":{"rate":0},"location_open":"","weight":0},{"id":387212,"mrkId":79932,"mapId":427,"name":"Southern Crop Improvement Greenhouse","catId":39042,"shape":"","level":[0],"schedule":"","lat":30.607344,"lng":-96.349968,"altitude":0,"reference":"","zoom":"","icon":"","marker_feed":{"rate":0},"location_open":"","weight":0},{"id":387213,"mrkId":240240,"mapId":427,"name":"The Gardens | Leach Teaching Gardens","catId":39042,"shape":"","level":[0],"schedule":"","lat":30.607149,"lng":-96.351677,"altitude":0,"reference":"","zoom":"","icon":"","marker_feed":{"rate":0},"location_open":"","weight":0},{"id":387214,"mrkId":178624,"mapId":427,"name":"Wildlife, Fisheries and Ecological Sciences Building","catId":39042,"shape":"","level":[0],"schedule":"","lat":30.606556,"lng":-96.350677,"altitude":0,"reference":["WFES"],"zoom":"","icon":"","marker_feed":{"rate":0},"location_open":"","weight":0},{"id":387216,"mrkId":79935,"mapId":427,"name":"AgriLife Services Building","catId":39042,"shape":"","level":[0],"schedule":"","lat":30.606188,"lng":-96.351189,"altitude":0,"reference":"","zoom":"","icon":"","marker_feed":{"rate":0},"location_open":"","weight":0},{"id":387217,"mrkId":251574,"mapId":427,"name":"Music Activities Center","catId":39042,"shape":"","level":[0],"schedule":"","lat":30.610167,"lng":-96.334351,"altitude":0,"reference":["MAC"],"zoom":"","icon":"","marker_feed":{"rate":0},"location_open":"","weight":0},{"id":387218,"mrkId":85329,"mapId":427,"name":"0062","catId":39042,"shape":{"type":"polygon","color":"#5c0808","opacity":0,"weight":4,"colorNormal":"#5c0808","opacityNormal":0,"weightNormal":4,"colorHover":"#5c0808","opacityHover":0,"weightHover":4,"paths":[[30.607236690222138,-96.35450854897499],[30.60726208391193,-96.35451123118399],[30.607402903343544,-96.35467216372489],[30.607218222079936,-96.35487467050551],[30.607172051708993,-96.35487467050551],[30.607047391597558,-96.35471910238266]],"fillColor":"#570909","fillOpacity":0,"fillColorNormal":"#570909","fillOpacityNormal":0,"fillColorHover":"#570909","fillOpacityHover":0,"icon":true,"position":[30.607186786552443,-96.35470560751857]},"level":[0],"schedule":"","lat":30.607187,"lng":-96.354706,"altitude":0,"reference":["62"],"zoom":"","icon":"","marker_feed":{"rate":0},"location_open":"","weight":0},{"id":387221,"mrkId":85337,"mapId":427,"name":"0066","catId":39042,"shape":{"type":"polygon","color":"#5c0808","opacity":0,"weight":4,"colorNormal":"#5c0808","opacityNormal":0,"weightNormal":4,"colorHover":"#5c0808","opacityHover":0,"weightHover":4,"paths":[[30.606867326708876,-96.35482370853424],[30.606829236016456,-96.35482504963875],[30.60667687309696,-96.35464668273926],[30.60679229957313,-96.35452196002007],[30.60682231043441,-96.35452598333359],[30.606979290172607,-96.35470435023308]],"fillColor":"#570909","fillOpacity":0,"fillColorNormal":"#570909","fillOpacityNormal":0,"fillColorHover":"#570909","fillOpacityHover":0,"icon":true,"position":[30.606799261228083,-96.3546686328482]},"level":[0],"schedule":"","lat":30.606798,"lng":-96.354668,"altitude":0,"reference":["66"],"zoom":"","icon":"","marker_feed":{"rate":0},"location_open":"","weight":0},{"id":387222,"mrkId":85331,"mapId":427,"name":"0065","catId":39042,"shape":{"type":"polygon","color":"#5c0808","opacity":0,"weight":4,"colorNormal":"#5c0808","opacityNormal":0,"weightNormal":4,"colorHover":"#5c0808","opacityHover":0,"weightHover":4,"paths":[[30.607023152112816,-96.35509327054024],[30.606989678528652,-96.35509461164473],[30.606847704232823,-96.35493636131287],[30.606946970835555,-96.35483309626578],[30.606971210339356,-96.35483443737029],[30.607113184454146,-96.35499268770218]],"fillColor":"#570909","fillOpacity":0,"fillColorNormal":"#570909","fillOpacityNormal":0,"fillColorHover":"#570909","fillOpacityHover":0,"icon":true,"position":[30.606945798537982,-96.35495247552173]},"level":[0],"schedule":"","lat":30.606947,"lng":-96.35495,"altitude":0,"reference":["65"],"zoom":"","icon":"","marker_feed":{"rate":0},"location_open":"","weight":0},{"id":387223,"mrkId":85338,"mapId":427,"name":"0067","catId":39042,"shape":{"type":"polygon","color":"#5c0808","opacity":0,"weight":4,"colorNormal":"#5c0808","opacityNormal":0,"weightNormal":4,"colorHover":"#5c0808","opacityHover":0,"weightHover":4,"paths":[[30.606653787785206,-96.35471910238266],[30.606808459268816,-96.35489746928215],[30.606699958403187,-96.35501950979233],[30.606657250582334,-96.35502085089684],[30.60651296726444,-96.35483711957932],[30.60662262260562,-96.35471776127815]],"fillColor":"#570909","fillOpacity":0,"fillColorNormal":"#570909","fillOpacityNormal":0,"fillColorHover":"#570909","fillOpacityHover":0,"icon":true,"position":[30.606646799066706,-96.35487756226212]},"level":[0],"schedule":"","lat":30.606647,"lng":-96.354881,"altitude":0,"reference":["67"],"zoom":"","icon":"","marker_feed":{"rate":0},"location_open":"","weight":0},{"id":387225,"mrkId":85339,"mapId":427,"name":"0070","catId":39042,"shape":{"type":"polygon","color":"#5c0808","opacity":0,"weight":4,"colorNormal":"#5c0808","opacityNormal":0,"weightNormal":4,"colorHover":"#5c0808","opacityHover":0,"weightHover":4,"paths":[[30.606370992269834,-96.35539904236794],[30.60632713003429,-96.35539904236794],[30.606165532153035,-96.3552153110504],[30.60628095923858,-96.35509863495827],[30.606321358686024,-96.35509997606277],[30.60647833923615,-96.35527834296227]],"fillColor":"#570909","fillOpacity":0,"fillColorNormal":"#570909","fillOpacityNormal":0,"fillColorHover":"#570909","fillOpacityHover":0,"icon":true,"position":[30.606289958938394,-96.35524458484724]},"level":[0],"schedule":"","lat":30.606291,"lng":-96.355247,"altitude":0,"reference":"","zoom":"","icon":"","marker_feed":{"rate":0},"location_open":"","weight":0},{"id":387227,"mrkId":143104,"mapId":427,"name":"0071","catId":39042,"shape":{"type":"polygon","color":"#540000","opacity":0,"weight":"4","colorNormal":"#540000","opacityNormal":0,"weightNormal":"4","colorHover":"#540000","opacityHover":0,"weightHover":"4","paths":[[30.606517584333947,-96.35555058717729],[30.6064206258282,-96.35543122887613],[30.606253256750605,-96.35560825467111],[30.606350215423877,-96.35574504733088]],"fillColor":"#610000","fillOpacity":0,"fillColorNormal":"#610000","fillOpacityNormal":0,"fillColorHover":"#610000","fillOpacityHover":0,"icon":true,"position":[30.606351162285463,-96.3555947074201]},"level":[0],"schedule":"","lat":30.606352,"lng":-96.355598,"altitude":0,"reference":["71"],"zoom":"","icon":"","marker_feed":{"rate":0},"location_open":"","weight":0},{"id":387228,"mrkId":143103,"mapId":427,"name":"0072","catId":39042,"shape":{"type":"polygon","color":"#540000","opacity":0,"weight":"4","colorNormal":"#540000","opacityNormal":0,"weightNormal":"4","colorHover":"#540000","opacityHover":0,"weightHover":"4","paths":[[30.606262490914144,-96.35549157857898],[30.606165532153035,-96.35560825467111],[30.605920826276737,-96.35530382394793],[30.606013168189477,-96.35518848896028]],"fillColor":"#610000","fillOpacity":0,"fillColorNormal":"#610000","fillOpacityNormal":0,"fillColorHover":"#610000","fillOpacityHover":0,"icon":true,"position":[30.606054965500935,-96.35539684211837]},"level":[0],"schedule":"","lat":30.606054,"lng":-96.3554,"altitude":0,"reference":["72"],"zoom":"","icon":"","marker_feed":{"rate":0},"location_open":"","weight":0},{"id":387229,"mrkId":79982,"mapId":427,"name":"Donald L. Houston Building","catId":39042,"shape":"","level":[0],"schedule":"","lat":30.606604,"lng":-96.357635,"altitude":0,"reference":"","zoom":"","icon":"","marker_feed":{"rate":0},"location_open":"","weight":0},{"id":387230,"mrkId":79984,"mapId":427,"name":"Electron Beam Food Research Facility","catId":39042,"shape":"","level":[0],"schedule":"","lat":30.605721,"lng":-96.356461,"altitude":0,"reference":"","zoom":"","icon":"","marker_feed":{"rate":0},"location_open":"","weight":0},{"id":387231,"mrkId":79983,"mapId":427,"name":"1111 Research Parkway Bldg","catId":39042,"shape":"","level":[0],"schedule":"","lat":30.605635,"lng":-96.3591,"altitude":0,"reference":["ONRP"],"zoom":"","icon":"","marker_feed":{"rate":0},"location_open":"","weight":0},{"id":387232,"mrkId":84614,"mapId":427,"name":"Testing and Characterization Facility","catId":39042,"shape":"","level":[0],"schedule":"","lat":30.604809,"lng":-96.358002,"altitude":0,"reference":"","zoom":"","icon":"","marker_feed":{"rate":0},"location_open":"","weight":0},{"id":387233,"mrkId":79985,"mapId":427,"name":"Health Technologies Building","catId":39042,"shape":"","level":[0],"schedule":"","lat":30.604824,"lng":-96.355507,"altitude":0,"reference":["HTB"],"zoom":"","icon":"","marker_feed":{"rate":0},"location_open":"","weight":0},{"id":387234,"mrkId":192374,"mapId":427,"name":"Enterprise Electrical Distribution Center","catId":39042,"shape":{"type":"polygon","color":"#590000","opacity":0,"weight":4,"colorNormal":"#590000","opacityNormal":0,"weightNormal":4,"colorHover":"#590000","opacityHover":0,"weightHover":4,"paths":[[30.60382002397878,-96.35573029518129],[30.603944688243946,-96.35585099458696],[30.603547608915143,-96.35649472475053],[30.603432178572334,-96.35637134313585]],"fillColor":"#7d1b1b","fillOpacity":0,"fillColorNormal":"#7d1b1b","fillOpacityNormal":0,"fillColorHover":"#7d1b1b","fillOpacityHover":0,"icon":true,"position":[30.603688433408138,-96.35611250996591]},"level":[0],"schedule":"","lat":30.603687,"lng":-96.35611,"altitude":0,"reference":"","zoom":"","icon":"","marker_feed":{"feed":"","rate":0},"location_open":"","weight":0},{"id":387235,"mrkId":79986,"mapId":427,"name":"International Ocean Discovery Building","catId":39042,"shape":"","level":[0],"schedule":"","lat":30.603342,"lng":-96.354416,"altitude":0,"reference":"","zoom":"","icon":"","marker_feed":{"rate":0},"location_open":"","weight":0},{"id":387236,"mrkId":79987,"mapId":427,"name":"Offshore Technology Research Center","catId":39042,"shape":"","level":[0],"schedule":"","lat":30.60264,"lng":-96.355728,"altitude":0,"reference":"","zoom":"","icon":"","marker_feed":{"rate":0},"location_open":"","weight":0},{"id":387237,"mrkId":79988,"mapId":427,"name":"Liberal Arts & Social Sciences Building","catId":39042,"shape":"","level":[0],"schedule":"","lat":30.602167,"lng":-96.353752,"altitude":0,"reference":"","zoom":"","icon":"","marker_feed":{"rate":0},"location_open":"","weight":0},{"id":387238,"mrkId":79989,"mapId":427,"name":"Gilchrist Building (T.T.I.)","catId":39042,"shape":"","level":[0],"schedule":"","lat":30.601553,"lng":-96.353348,"altitude":0,"reference":"","zoom":"","icon":"","marker_feed":{"rate":0},"location_open":"","weight":0},{"id":387239,"mrkId":79913,"mapId":427,"name":"Physical Education Boot Camp and Archery Annex","catId":39042,"shape":"","level":[0],"schedule":"","lat":30.602036,"lng":-96.351204,"altitude":0,"reference":"","zoom":"","icon":"","marker_feed":{"rate":0},"location_open":"","weight":0},{"id":387240,"mrkId":79991,"mapId":427,"name":"Centeq Building","catId":39042,"shape":"","level":[0],"schedule":"","lat":30.602411,"lng":-96.358994,"altitude":0,"reference":"","zoom":"","icon":"","marker_feed":{"rate":0},"location_open":"","weight":0},{"id":387241,"mrkId":79990,"mapId":427,"name":"Giesecke Engineering Research Building","catId":39042,"shape":"","level":[0],"schedule":"","lat":30.602091,"lng":-96.357079,"altitude":0,"reference":"","zoom":"","icon":"","marker_feed":{"rate":0},"location_open":"","weight":0},{"id":387242,"mrkId":79992,"mapId":427,"name":"2 Research Park","catId":39042,"shape":"","level":[0],"schedule":"","lat":30.600468,"lng":-96.359032,"altitude":0,"reference":"","zoom":"","icon":"","marker_feed":{"rate":0},"location_open":"","weight":0},{"id":387243,"mrkId":79914,"mapId":427,"name":"Allen Building (Academic West)","catId":39042,"shape":"","level":[0],"schedule":"","lat":30.597719,"lng":-96.35231,"altitude":0,"reference":["ALLN"],"zoom":"","icon":"","marker_feed":{"rate":0},"location_open":"","weight":0},{"id":387244,"mrkId":79915,"mapId":427,"name":"Annenberg Presidential Conference Center","catId":39042,"shape":"","level":[0],"schedule":"","lat":30.597343,"lng":-96.353653,"altitude":0,"reference":["BPCC"],"zoom":"","icon":"","marker_feed":{"rate":0},"location_open":"","weight":0},{"id":387245,"mrkId":79910,"mapId":427,"name":"Omar Smith Instructional Tennis Center","catId":39042,"shape":"","level":[0],"schedule":"","lat":30.602501,"lng":-96.350334,"altitude":0,"reference":"","zoom":"","icon":"","marker_feed":{"rate":0},"location_open":"","weight":0},{"id":387246,"mrkId":79911,"mapId":427,"name":"Physical Education Activity Program Building","catId":39042,"shape":"","level":[0],"schedule":"","lat":30.604462,"lng":-96.349388,"altitude":0,"reference":["PEAP"],"zoom":"","icon":"","marker_feed":{"rate":0},"location_open":"","weight":0},{"id":387247,"mrkId":79934,"mapId":427,"name":"Agriculture & Life Sciences Building","catId":39042,"shape":"","level":[0],"schedule":"","lat":30.605621,"lng":-96.350929,"altitude":0,"reference":["AGLS"],"zoom":"","icon":"","marker_feed":{"rate":0},"location_open":"","weight":0},{"id":387248,"mrkId":130871,"mapId":427,"name":"Human Clinical Research Building","catId":39042,"shape":{"type":"polygon","color":"#730e0e","opacity":0,"weight":4,"colorNormal":"#730e0e","opacityNormal":0,"weightNormal":4,"colorHover":"#730e0e","opacityHover":0,"weightHover":4,"paths":[[30.604390246250514,-96.35136097669603],[30.60429328561527,-96.35135829448701],[30.604115524198555,-96.35117992758751],[30.604392554835876,-96.35079368948936],[30.604471046705758,-96.35079905390742],[30.60465688749701,-96.3509760797024],[30.604543767057837,-96.35114237666133],[30.604554155675096,-96.35115444660188],[30.604483743914027,-96.35125905275346],[30.604460658079567,-96.35125368833545]],"fillColor":"#6b1010","fillOpacity":0,"fillColorNormal":"#6b1010","fillOpacityNormal":0,"fillColorHover":"#6b1010","fillOpacityHover":0,"icon":true,"position":[30.60431249378453,-96.35109573137018]},"level":[0],"schedule":"","lat":30.604313,"lng":-96.351097,"altitude":0,"reference":"","zoom":"","icon":"","marker_feed":{"rate":0},"location_open":"","weight":0},{"id":387250,"mrkId":79917,"mapId":427,"name":"Milner Hall","catId":39042,"shape":"","level":[0],"schedule":"","lat":30.616888,"lng":-96.342926,"altitude":0,"reference":["MILN"],"zoom":"","icon":"","marker_feed":{"rate":0},"location_open":"","weight":0},{"id":387251,"mrkId":79968,"mapId":427,"name":"General Services Complex","catId":39042,"shape":"","level":[0],"schedule":"","lat":30.622269,"lng":-96.357399,"altitude":0,"reference":["GSC"],"zoom":"","icon":"","marker_feed":{"rate":0},"location_open":"","weight":0},{"id":387252,"mrkId":79959,"mapId":427,"name":"Laboratory Animal Care Building","catId":39042,"shape":"","level":[0],"schedule":"","lat":30.615183,"lng":-96.352989,"altitude":0,"reference":["LARR"],"zoom":"","icon":"","marker_feed":{"rate":0},"location_open":"","weight":0},{"id":387253,"mrkId":79958,"mapId":427,"name":"TVMC-Small Animal Research Building","catId":39042,"shape":"","level":[0],"schedule":"","lat":30.614464,"lng":-96.352425,"altitude":0,"reference":["VIV2"],"zoom":"","icon":"","marker_feed":{"rate":0},"location_open":"","weight":0},{"id":387254,"mrkId":79957,"mapId":427,"name":"Vivarium III","catId":39042,"shape":{"type":"polygon","color":"#730e0e","opacity":0,"weight":4,"colorNormal":"#730e0e","opacityNormal":0,"weightNormal":4,"colorHover":"#730e0e","opacityHover":0,"weightHover":4,"paths":[[30.614324733985487,-96.35314464569092],[30.614101978089888,-96.35287776589394],[30.61425202097746,-96.35271415114403],[30.614305113020453,-96.35271549224854],[30.614447076383723,-96.35288044810294],[30.614458618111414,-96.35286703705788],[30.614475930700387,-96.35286837816238],[30.614565956113147,-96.35297432541847],[30.614545181025328,-96.3529998064041],[30.614643285567546,-96.35311380028725],[30.614510555869053,-96.353250592947],[30.61449324328626,-96.353250592947],[30.61440437197927,-96.35314598679543],[30.61447015983775,-96.35306686162949],[30.614452847247733,-96.35304138064383],[30.614440151346443,-96.35304138064383],[30.614417067885263,-96.3530695438385],[30.614428609616542,-96.3530869781971],[30.61439398441859,-96.35312587022781],[30.61437782598861,-96.35312587022781],[30.61436859259886,-96.35311380028725],[30.614345509120632,-96.35314732789993]],"fillColor":"#6b1010","fillOpacity":0,"fillColorNormal":"#6b1010","fillOpacityNormal":0,"fillColorHover":"#6b1010","fillOpacityHover":0,"icon":true,"position":[30.614372631828715,-96.35298237204552]},"level":[0],"schedule":"","lat":30.614372,"lng":-96.352982,"altitude":0,"reference":["VIV3"],"zoom":"","icon":"","marker_feed":{"rate":null},"location_open":"","weight":0},{"id":387255,"mrkId":16756,"mapId":427,"name":"Veterinary Medical Diagnostic Laboratory","catId":39042,"shape":"","level":[0],"schedule":"","lat":30.614122,"lng":-96.353188,"altitude":0,"reference":["VMDL"],"zoom":"","icon":"","marker_feed":{"rate":0},"location_open":"","weight":0},{"id":387256,"mrkId":79956,"mapId":427,"name":"Variety Testing and Sorghum Breeding","catId":39042,"shape":"","level":[0],"schedule":"","lat":30.614071,"lng":-96.354454,"altitude":0,"reference":"","zoom":"","icon":"","marker_feed":{"rate":0},"location_open":"","weight":0},{"id":387257,"mrkId":79955,"mapId":427,"name":"Veterinary Anatomic Pathology","catId":39042,"shape":"","level":[0],"schedule":"","lat":30.613642,"lng":-96.354164,"altitude":0,"reference":"","zoom":"","icon":"","marker_feed":{"rate":0},"location_open":"","weight":0},{"id":387258,"mrkId":79954,"mapId":427,"name":"Veterinary Medical Sciences Building","catId":39042,"shape":"","level":[0],"schedule":"","lat":30.613451,"lng":-96.35199,"altitude":0,"reference":["VMS"],"zoom":"","icon":"","marker_feed":{"rate":0},"location_open":"","weight":0},{"id":387259,"mrkId":79953,"mapId":427,"name":"Veterinary Medicine Administration","catId":39042,"shape":"","level":[0],"schedule":"","lat":30.613033,"lng":-96.352547,"altitude":0,"reference":["VMA"],"zoom":"","icon":"","marker_feed":{"rate":0},"location_open":"","weight":0},{"id":387260,"mrkId":16725,"mapId":427,"name":"Veterinary Teaching Hospital","catId":39042,"shape":"","level":[0],"schedule":"","lat":30.613234,"lng":-96.353539,"altitude":0,"reference":["VTH"],"zoom":"","icon":"","marker_feed":{"rate":0},"location_open":"","weight":0},{"id":387261,"mrkId":16758,"mapId":427,"name":"Veterinary Large Animal Hospital","catId":39042,"shape":"","level":[0],"schedule":"","lat":30.612543,"lng":-96.355019,"altitude":0,"reference":"","zoom":"","icon":"","marker_feed":{"rate":0},"location_open":"","weight":0},{"id":387262,"mrkId":79952,"mapId":427,"name":"Veterinary Small Animal Hospital","catId":39042,"shape":"","level":[0],"schedule":"","lat":30.612329,"lng":-96.353584,"altitude":0,"reference":["VSAH"],"zoom":"","icon":"","marker_feed":{"rate":0},"location_open":"","weight":0},{"id":387263,"mrkId":79950,"mapId":427,"name":"Vet Med Research Bldg Addition","catId":39042,"shape":"","level":[0],"schedule":"","lat":30.611641,"lng":-96.354698,"altitude":0,"reference":"","zoom":"","icon":"","marker_feed":{"rate":0},"location_open":"","weight":0},{"id":387264,"mrkId":79949,"mapId":427,"name":"Veterinary Research Building","catId":39042,"shape":"","level":[0],"schedule":"","lat":30.611174,"lng":-96.354858,"altitude":0,"reference":"","zoom":"","icon":"","marker_feed":{"rate":0},"location_open":"","weight":0},{"id":387265,"mrkId":127263,"mapId":427,"name":"Veterinary Medicine Building 3","catId":39042,"shape":"","level":[0],"schedule":"","lat":30.612507,"lng":-96.357422,"altitude":0,"reference":["VICI"],"zoom":"","icon":"","marker_feed":{"rate":0},"location_open":"","weight":0},{"id":387266,"mrkId":127264,"mapId":427,"name":"Veterinary Medicine Building 2","catId":39042,"shape":"","level":[0],"schedule":"","lat":30.611992,"lng":-96.358032,"altitude":0,"reference":["VIDI"],"zoom":"","icon":"","marker_feed":{"rate":0},"location_open":"","weight":0},{"id":387267,"mrkId":127262,"mapId":427,"name":"Veterinary Medicine Building 1","catId":39042,"shape":"","level":[0],"schedule":"","lat":30.611797,"lng":-96.35701,"altitude":0,"reference":["VENI"],"zoom":"","icon":"","marker_feed":{"rate":0},"location_open":"","weight":0},{"id":387270,"mrkId":79940,"mapId":427,"name":"School of Public Health - Classroom Building","catId":39042,"shape":"","level":[0],"schedule":"","lat":30.610052,"lng":-96.353882,"altitude":0,"reference":"","zoom":"","icon":"","marker_feed":{"rate":0},"location_open":"","weight":0},{"id":387271,"mrkId":16754,"mapId":427,"name":"School of Public Health - Lab Building","catId":39042,"shape":"","level":[0],"schedule":"","lat":30.609949,"lng":-96.354469,"altitude":0,"reference":"","zoom":"","icon":"","marker_feed":{"rate":0},"location_open":"","weight":0},{"id":387272,"mrkId":79941,"mapId":427,"name":"School of Public Health - Admin Building","catId":39042,"shape":"","level":[0],"schedule":"","lat":30.609476,"lng":-96.35437,"altitude":0,"reference":["SPHADM"],"zoom":"","icon":"","marker_feed":{"rate":0},"location_open":"","weight":0},{"id":387273,"mrkId":79946,"mapId":427,"name":"Texas A&M Institute for Genomic Medicine","catId":39042,"shape":"","level":[0],"schedule":"","lat":30.610579,"lng":-96.357216,"altitude":0,"reference":["TIGM"],"zoom":"","icon":"","marker_feed":{"rate":0},"location_open":"","weight":0},{"id":387274,"mrkId":79945,"mapId":427,"name":"Texas A&M Institute for Preclinical Studies","catId":39042,"shape":"","level":[0],"schedule":"","lat":30.609247,"lng":-96.357521,"altitude":0,"reference":["TIPS"],"zoom":"","icon":"","marker_feed":{"rate":0},"location_open":"","weight":0},{"id":387275,"mrkId":79981,"mapId":427,"name":"National Center for Therapeutics Manufacturing","catId":39042,"shape":"","level":[0],"schedule":"","lat":30.607807,"lng":-96.361725,"altitude":0,"reference":["NCTM"],"zoom":"","icon":"","marker_feed":{"rate":0},"location_open":"","weight":0},{"id":387276,"mrkId":16720,"mapId":427,"name":"Duncan Dining Hall","catId":39042,"shape":"","level":[0],"schedule":"","lat":30.612103,"lng":-96.335541,"altitude":0,"reference":["DCAN"],"zoom":"","icon":"","marker_feed":{"rate":0},"location_open":"","weight":0},{"id":387277,"mrkId":79806,"mapId":427,"name":"Evans Library Annex","catId":39042,"shape":"","level":[0],"schedule":"","lat":30.616493,"lng":-96.338409,"altitude":0,"reference":["ANNEX"],"zoom":"","icon":"","marker_feed":{"rate":0},"location_open":"","weight":0},{"id":387278,"mrkId":16748,"mapId":427,"name":"Evans Library","catId":39042,"shape":"","level":[0],"schedule":"","lat":30.616882,"lng":-96.339401,"altitude":0,"reference":["LIBR"],"zoom":"","icon":"","marker_feed":{"rate":0},"location_open":"","weight":0},{"id":387279,"mrkId":79805,"mapId":427,"name":"Cushing Memorial Library & Archives","catId":39042,"shape":"","level":[0],"schedule":"","lat":30.616423,"lng":-96.339928,"altitude":0,"reference":["CUSH"],"zoom":"","icon":"","marker_feed":{"rate":0},"location_open":"","weight":0},{"id":387280,"mrkId":16724,"mapId":427,"name":"Business Library and Collaboration Commons ","catId":39042,"shape":"","level":[0],"schedule":"","lat":30.611605,"lng":-96.35022,"altitude":0,"reference":["WCLF"],"zoom":"","icon":"","marker_feed":{"rate":0},"location_open":"","weight":0},{"id":387281,"mrkId":16750,"mapId":427,"name":"Medical Sciences Library","catId":39042,"shape":"","level":[0],"schedule":"","lat":30.612066,"lng":-96.351654,"altitude":0,"reference":["MEDL"],"zoom":"","icon":"","marker_feed":{"rate":0},"location_open":"","weight":0},{"id":387282,"mrkId":84431,"mapId":427,"name":"Policy Sciences & Economics Library","catId":39042,"shape":{"type":"polygon","color":"#730e0e","opacity":0,"weight":4,"colorNormal":"#730e0e","opacityNormal":0,"weightNormal":4,"colorHover":"#730e0e","opacityHover":0,"weightHover":4,"paths":[[30.597489638725783,-96.3534665107727],[30.597302629807942,-96.35325461626053],[30.597325717348195,-96.35321706533432],[30.597344187376436,-96.35319292545319],[30.597533504962872,-96.35342359542845]],"fillColor":"#6b1010","fillOpacity":0,"fillColorNormal":"#6b1010","fillOpacityNormal":0,"fillColorHover":"#6b1010","fillOpacityHover":0,"icon":true,"position":[30.597418067385405,-96.35332971811295]},"level":[0],"schedule":"","lat":30.597418,"lng":-96.353333,"altitude":0,"reference":["PSEL"],"zoom":"","icon":"","marker_feed":{"feed":"","rate":0},"location_open":"","weight":0},{"id":387283,"mrkId":84612,"mapId":427,"name":"The Campus Course","catId":39042,"shape":"","level":[0],"schedule":"","lat":30.616774,"lng":-96.334015,"altitude":0,"reference":"","zoom":"","icon":"","marker_feed":{"rate":0},"location_open":"","weight":0},{"id":387284,"mrkId":105028,"mapId":427,"name":"The Zone Club","catId":39042,"shape":"","level":[0],"schedule":"","lat":30.611023,"lng":-96.341232,"altitude":0,"reference":"","zoom":"","icon":"","marker_feed":{"feed":"","rate":0},"location_open":"","weight":0},{"id":387285,"mrkId":16726,"mapId":427,"name":"Kyle Field","catId":39042,"shape":{"type":"polygon","color":"#730e0e","opacity":0,"weight":4,"colorNormal":"#730e0e","opacityNormal":0,"weightNormal":4,"colorHover":"#730e0e","opacityHover":0,"weightHover":4,"paths":[[30.61147965254588,-96.34095937013626],[30.610946406885056,-96.34167283773422],[30.610708638392772,-96.34177476167679],[30.610616300956856,-96.34189277887344],[30.610443168027178,-96.34189814329147],[30.610276960123482,-96.34212344884871],[30.610046115339568,-96.34212076663971],[30.60976679241532,-96.34185791015625],[30.60976679241532,-96.34183645248413],[30.60951747871155,-96.34158164262772],[30.609330493012543,-96.34158700704575],[30.609030391753258,-96.3413080573082],[30.609081178185573,-96.34119540452956],[30.60870258777662,-96.3408574461937],[30.608663343564213,-96.34085208177567],[30.608388633632053,-96.3405892252922],[30.60862179085138,-96.34027272462845],[30.60867488598127,-96.3402646780014],[30.60865641811331,-96.34005546569824],[30.608843405113774,-96.3396880030632],[30.609314333737654,-96.33910864591599],[30.609499011004242,-96.33895844221115],[30.609697538673093,-96.33894771337509],[30.60989606593496,-96.33869826793669],[30.61011306038356,-96.33869826793669],[30.610422392054808,-96.33896112442015],[30.6103831485393,-96.33903354406357],[30.61045240179124,-96.33908987045288],[30.610470869316718,-96.3390764594078],[30.610660161249893,-96.33924275636672],[30.610824060063866,-96.33924275636672],[30.611103379938644,-96.33950293064116],[30.611041052433123,-96.3395968079567],[30.61135268955963,-96.33989989757538],[30.611371156913435,-96.33987575769424],[30.611708185501644,-96.3401547074318],[30.611481960962266,-96.34046584367752],[30.61154659659889,-96.34054094552994],[30.611451951544908,-96.3406777381897],[30.61150735353894,-96.34072870016098]],"fillColor":"#6b1010","fillOpacity":0,"fillColorNormal":"#6b1010","fillOpacityNormal":0,"fillColorHover":"#6b1010","fillOpacityHover":0,"icon":true,"position":[30.610445476468268,-96.34053289890288]},"level":[0],"schedule":"","lat":30.610445,"lng":-96.34053,"altitude":0,"reference":["KYLE"],"zoom":"","icon":"","marker_feed":{"rate":0},"location_open":"","weight":0},{"id":387286,"mrkId":105029,"mapId":427,"name":"Ford Hall of Champions","catId":39042,"shape":{"type":"polygon","color":"#820000","opacity":0,"weight":4,"colorNormal":"#820000","opacityNormal":0,"weightNormal":4,"colorHover":"#820000","opacityHover":0,"weightHover":4,"paths":[[30.609748324755575,-96.34182572364807],[30.609886832117848,-96.34182035923006],[30.609916842020226,-96.34178280830385],[30.610023030830916,-96.34176939725877],[30.6100657371676,-96.34177878499032],[30.610115368832542,-96.34182035923006],[30.610278114346038,-96.34156554937364],[30.609155049312335,-96.34053289890291],[30.608889574687975,-96.34086281061174],[30.60868989112141,-96.34085878729823],[30.60908579513264,-96.34120076894762],[30.609010769715436,-96.34131073951723],[30.609316642205666,-96.34158968925477],[30.60948631445346,-96.34158834815028]],"fillColor":"#7a2121","fillOpacity":0,"fillColorNormal":"#7a2121","fillOpacityNormal":0,"fillColorHover":"#7a2121","fillOpacityHover":0,"icon":true,"position":[30.609586732582525,-96.34122490882875]},"level":[0],"schedule":"","lat":30.609587,"lng":-96.341225,"altitude":0,"reference":"","zoom":"","icon":"","marker_feed":{"feed":"","rate":0},"location_open":"","weight":0},{"id":387287,"mrkId":79919,"mapId":427,"name":"Davis Football Player Development Center","catId":39042,"shape":{"type":"polygon","color":"#730e0e","opacity":0,"weight":4,"colorNormal":"#730e0e","opacityNormal":0,"weightNormal":4,"colorHover":"#730e0e","opacityHover":0,"weightHover":4,"paths":[[30.60890804251146,-96.33855074644089],[30.60868642839695,-96.3388806581497],[30.60866103508063,-96.3388806581497],[30.608307836444865,-96.3385561108589],[30.608527142938918,-96.33824497461319],[30.608580238120712,-96.33824229240417]],"fillColor":"#6b1010","fillOpacity":0,"fillColorNormal":"#6b1010","fillOpacityNormal":0,"fillColorHover":"#6b1010","fillOpacityHover":0,"icon":true,"position":[30.608607939478162,-96.33856147527695]},"level":[0],"schedule":"","lat":30.608608,"lng":-96.338562,"altitude":0,"reference":["DPDC"],"zoom":"","icon":"","marker_feed":{"rate":0},"location_open":"","weight":0},{"id":387288,"mrkId":16760,"mapId":427,"name":"Bright Football Complex","catId":39042,"shape":{"type":"polygon","color":"#730e0e","opacity":0,"weight":4,"colorNormal":"#730e0e","opacityNormal":0,"weightNormal":4,"colorHover":"#730e0e","opacityHover":0,"weightHover":4,"paths":[[30.609410135113663,-96.33897855877876],[30.60901192395308,-96.33861780166625],[30.60894959510147,-96.33861109614372],[30.60871643867133,-96.33895576000214],[30.608662189322423,-96.33895710110664],[30.608522525965235,-96.33904963731766],[30.60844172888975,-96.33916765451431],[30.608399021836934,-96.33932054042816],[30.608411718530284,-96.33933797478676],[30.608334384099514,-96.33942648768425],[30.608379399671204,-96.33946537971497],[30.608442883134163,-96.33945867419243],[30.608490207143127,-96.33939698338509],[30.608617173882177,-96.33952170610428],[30.60880762367865,-96.33970811963081],[30.608881495014057,-96.33969739079475]],"fillColor":"#6b1010","fillOpacity":0,"fillColorNormal":"#6b1010","fillOpacityNormal":0,"fillColorHover":"#6b1010","fillOpacityHover":0,"icon":true,"position":[30.60879492703721,-96.33924812078476]},"level":[0],"schedule":"","lat":30.608795,"lng":-96.339249,"altitude":0,"reference":["BFC"],"zoom":"","icon":"","marker_feed":{"rate":0},"location_open":"","weight":0},{"id":387289,"mrkId":167492,"mapId":427,"name":"Nye Academic Center","catId":39042,"shape":"","level":[0],"schedule":"","lat":30.608997,"lng":-96.339005,"altitude":0,"reference":"","zoom":"","icon":"","marker_feed":{"feed":"","rate":0},"location_open":"","weight":0},